[
  {
    "id": "dir-0001",
    "name": "Guardian Hankinson Renewable Energy",
    "type": "ethanol",
    "cashPrice": 4.02,
    "basis": -0.46,
    "freightCost": 0,
    "netPrice": 0,
    "city": "Hankinson",
    "state": "ND",
    "region": "Eastern ND",
    "lat": 46.0669,
    "lng": -96.4003,
    "railAccessible": true,
    "nearTransload": true,
    "contactName": "Grain Desk",
    "contactPhone": "(701) 242-7500",
    "website": "https://www.guardianhen.com",
    "lastUpdated": "2026-02-18T19:06:52.184Z",
    "confidenceScore": 99,
    "verified": true,
    "cropType": "Yellow Corn",
    "organic": false,
    "railConfidence": 100
  },
  {
    "id": "dir-0002",
    "name": "Red Trail Energy",
    "type": "ethanol",
    "cashPrice": 3.88,
    "basis": -0.6,
    "freightCost": 0,
    "netPrice": 0,
    "city": "Richardton",
    "state": "ND",
    "region": "Western ND",
    "lat": 46.8836,
    "lng": -102.315,
    "railAccessible": true,
    "nearTransload": true,
    "contactName": "Grain Desk",
    "contactPhone": "(701) 974-3308",
    "website": "https://redtrailenergy.com",
    "lastUpdated": "2026-02-18T19:06:52.184Z",
    "confidenceScore": 99,
    "verified": true,
    "cropType": "Yellow Corn",
    "organic": false,
    "railConfidence": 99
  },
  {
    "id": "dir-0003",
    "name": "Tharaldson Ethanol",
    "type": "ethanol",
    "cashPrice": 4.05,
    "basis": -0.43,
    "freightCost": 0,
    "netPrice": 0,
    "city": "Casselton",
    "state": "ND",
    "region": "Eastern ND",
    "lat": 46.9005,
    "lng": -97.2112,
    "railAccessible": true,
    "nearTransload": true,
    "contactName": "Grain Desk",
    "contactPhone": "(701) 347-4900",
    "website": "https://www.tharaldsonethanol.com",
    "lastUpdated": "2026-02-18T19:06:52.184Z",
    "confidenceScore": 99,
    "verified": true,
    "cropType": "Yellow Corn",
    "organic": false,
    "railConfidence": 99
  },
  {
    "id": "dir-0004",
    "name": "Blue Flint Ethanol",
    "type": "ethanol",
    "cashPrice": 4,
    "basis": -0.48,
    "freightCost": 0,
    "netPrice": 0,
    "city": "Underwood",
    "state": "ND",
    "region": "Central ND",
    "lat": 47.4536,
    "lng": -101.138,
    "railAccessible": false,
    "nearTransload": false,
    "contactName": "Grain Desk",
    "contactPhone": "(701) 442-3388",
    "website": "",
    "lastUpdated": "2026-02-18T19:06:52.184Z",
    "confidenceScore": 50,
    "verified": false,
    "cropType": "Yellow Corn",
    "organic": false,
    "railConfidence": 45
  },
  {
    "id": "dir-0005",
    "name": "Dakota Spirit AgEnergy",
    "type": "ethanol",
    "cashPrice": 4.01,
    "basis": -0.47,
    "freightCost": 0,
    "netPrice": 0,
    "city": "Spiritwood",
    "state": "ND",
    "region": "Central ND",
    "lat": 46.8969,
    "lng": -98.3878,
    "railAccessible": true,
    "nearTransload": true,
    "contactName": "Grain Desk",
    "contactPhone": "(701) 252-6422",
    "website": "",
    "lastUpdated": "2026-02-18T19:06:52.184Z",
    "confidenceScore": 99,
    "verified": true,
    "cropType": "Yellow Corn",
    "organic": false,
    "railConfidence": 99
  },
  {
    "id": "dir-0006",
    "name": "CHS Fargo",
    "type": "elevator",
    "cashPrice": 4.02,
    "basis": -0.46,
    "freightCost": 0,
    "netPrice": 0,
    "city": "Fargo",
    "state": "ND",
    "region": "Eastern ND",
    "lat": 46.8772,
    "lng": -96.7898,
    "railAccessible": true,
    "nearTransload": true,
    "contactName": "Grain Desk",
    "contactPhone": "(701) 282-6601",
    "website": "https://www.chsinc.com",
    "lastUpdated": "2026-02-18T19:06:52.184Z",
    "confidenceScore": 99,
    "verified": true,
    "cropType": "Yellow Corn",
    "organic": false,
    "railConfidence": 100
  },
  {
    "id": "dir-0007",
    "name": "AGT Foods Minot",
    "type": "processor",
    "cashPrice": 3.93,
    "basis": -0.55,
    "freightCost": 0,
    "netPrice": 0,
    "city": "Minot",
    "state": "ND",
    "region": "Northern ND",
    "lat": 48.2325,
    "lng": -101.296,
    "railAccessible": false,
    "nearTransload": false,
    "contactName": "Grain Desk",
    "contactPhone": "(701) 852-4222",
    "website": "",
    "lastUpdated": "2026-02-18T19:06:52.184Z",
    "confidenceScore": 50,
    "verified": false,
    "cropType": "Yellow Corn",
    "organic": false,
    "railConfidence": 15
  },
  {
    "id": "dir-0008",
    "name": "Viterra Berthold",
    "type": "elevator",
    "cashPrice": 3.96,
    "basis": -0.52,
    "freightCost": 0,
    "netPrice": 0,
    "city": "Berthold",
    "state": "ND",
    "region": "Northern ND",
    "lat": 48.32,
    "lng": -101.669,
    "railAccessible": false,
    "nearTransload": false,
    "contactName": "Grain Desk",
    "contactPhone": "(701) 131-3625",
    "website": "",
    "lastUpdated": "2026-02-18T19:06:52.184Z",
    "confidenceScore": 50,
    "verified": false,
    "cropType": "Yellow Corn",
    "organic": false,
    "railConfidence": 13
  },
  {
    "id": "dir-0009",
    "name": "Columbia Grain Crosby",
    "type": "elevator",
    "cashPrice": 4.16,
    "basis": -0.32,
    "freightCost": 0,
    "netPrice": 0,
    "city": "Crosby",
    "state": "ND",
    "region": "Northwest ND",
    "lat": 48.9144,
    "lng": -103.295,
    "railAccessible": false,
    "nearTransload": false,
    "contactName": "Grain Desk",
    "contactPhone": "(701) 558-5608",
    "website": "",
    "lastUpdated": "2026-02-18T19:06:52.184Z",
    "confidenceScore": 50,
    "verified": false,
    "cropType": "Yellow Corn",
    "organic": false,
    "railConfidence": 0
  },
  {
    "id": "dir-0010",
    "name": "Farmers Union Grain Terminal",
    "type": "shuttle",
    "cashPrice": 4.02,
    "basis": -0.46,
    "freightCost": 0,
    "netPrice": 0,
    "city": "St Paul",
    "state": "ND",
    "region": "Eastern ND",
    "lat": 46.8772,
    "lng": -96.7898,
    "railAccessible": true,
    "nearTransload": true,
    "contactName": "Grain Desk",
    "contactPhone": "(701) 163-7799",
    "website": "",
    "lastUpdated": "2026-02-18T19:06:52.184Z",
    "confidenceScore": 99,
    "verified": true,
    "cropType": "Yellow Corn",
    "organic": false,
    "railConfidence": 100
  },
  {
    "id": "dir-0011",
    "name": "SB&B Foods Casselton",
    "type": "processor",
    "cashPrice": 4,
    "basis": -0.48,
    "freightCost": 0,
    "netPrice": 0,
    "city": "Casselton",
    "state": "ND",
    "region": "Eastern ND",
    "lat": 46.9005,
    "lng": -97.2112,
    "railAccessible": true,
    "nearTransload": true,
    "contactName": "Grain Desk",
    "contactPhone": "(701) 352-2556",
    "website": "",
    "lastUpdated": "2026-02-18T19:06:52.184Z",
    "confidenceScore": 99,
    "verified": true,
    "cropType": "Yellow Corn",
    "organic": false,
    "railConfidence": 99
  },
  {
    "id": "dir-0012",
    "name": "Arthur Companies",
    "type": "elevator",
    "cashPrice": 4.01,
    "basis": -0.47,
    "freightCost": 0,
    "netPrice": 0,
    "city": "Arthur",
    "state": "ND",
    "region": "Eastern ND",
    "lat": 46.9322,
    "lng": -97.113,
    "railAccessible": true,
    "nearTransload": true,
    "contactName": "Grain Desk",
    "contactPhone": "(701) 922-6350",
    "website": "",
    "lastUpdated": "2026-02-18T19:06:52.184Z",
    "confidenceScore": 99,
    "verified": true,
    "cropType": "Yellow Corn",
    "organic": false,
    "railConfidence": 97
  },
  {
    "id": "dir-0013",
    "name": "Cargill West Fargo",
    "type": "processor",
    "cashPrice": 4.03,
    "basis": -0.45,
    "freightCost": 0,
    "netPrice": 0,
    "city": "West Fargo",
    "state": "ND",
    "region": "Eastern ND",
    "lat": 46.874,
    "lng": -96.9003,
    "railAccessible": true,
    "nearTransload": true,
    "contactName": "Grain Desk",
    "contactPhone": "(701) 104-8414",
    "website": "https://www.cargill.com/agriculture",
    "lastUpdated": "2026-02-18T19:06:52.184Z",
    "confidenceScore": 99,
    "verified": true,
    "cropType": "Yellow Corn",
    "organic": false,
    "railConfidence": 100
  },
  {
    "id": "dir-0014",
    "name": "ADM Enderlin",
    "type": "elevator",
    "cashPrice": 4.06,
    "basis": -0.42,
    "freightCost": 0,
    "netPrice": 0,
    "city": "Enderlin",
    "state": "ND",
    "region": "SE North Dakota",
    "lat": 46.6261,
    "lng": -97.5945,
    "railAccessible": true,
    "nearTransload": false,
    "contactName": "Grain Desk",
    "contactPhone": "(701) 933-8229",
    "website": "https://www.adm.com",
    "lastUpdated": "2026-02-18T19:06:52.184Z",
    "confidenceScore": 83,
    "verified": true,
    "cropType": "Yellow Corn",
    "organic": false,
    "railConfidence": 74
  },
  {
    "id": "dir-0015",
    "name": "CHS Wahpeton",
    "type": "elevator",
    "cashPrice": 4.07,
    "basis": -0.41,
    "freightCost": 0,
    "netPrice": 0,
    "city": "Wahpeton",
    "state": "ND",
    "region": "SE North Dakota",
    "lat": 46.2652,
    "lng": -96.6059,
    "railAccessible": true,
    "nearTransload": true,
    "contactName": "Grain Desk",
    "contactPhone": "(701) 423-8968",
    "website": "https://www.chsinc.com",
    "lastUpdated": "2026-02-18T19:06:52.184Z",
    "confidenceScore": 99,
    "verified": true,
    "cropType": "Yellow Corn",
    "organic": false,
    "railConfidence": 99
  },
  {
    "id": "dir-0016",
    "name": "Minn-Dak Farmers Coop",
    "type": "processor",
    "cashPrice": 4.09,
    "basis": -0.39,
    "freightCost": 0,
    "netPrice": 0,
    "city": "Wahpeton",
    "state": "ND",
    "region": "SE North Dakota",
    "lat": 46.2652,
    "lng": -96.6059,
    "railAccessible": true,
    "nearTransload": true,
    "contactName": "Grain Desk",
    "contactPhone": "(701) 642-8411",
    "website": "",
    "lastUpdated": "2026-02-18T19:06:52.184Z",
    "confidenceScore": 99,
    "verified": true,
    "cropType": "Yellow Corn",
    "organic": false,
    "railConfidence": 99
  },
  {
    "id": "dir-0017",
    "name": "Dakota Growers Pasta",
    "type": "processor",
    "cashPrice": 3.96,
    "basis": -0.52,
    "freightCost": 0,
    "netPrice": 0,
    "city": "Carrington",
    "state": "ND",
    "region": "Central ND",
    "lat": 47.4497,
    "lng": -99.1262,
    "railAccessible": false,
    "nearTransload": false,
    "contactName": "Grain Desk",
    "contactPhone": "(701) 964-1676",
    "website": "",
    "lastUpdated": "2026-02-18T19:06:52.184Z",
    "confidenceScore": 60,
    "verified": false,
    "cropType": "Yellow Corn",
    "organic": false,
    "railConfidence": 51
  },
  {
    "id": "dir-0018",
    "name": "Jamestown Farmers Elevator",
    "type": "elevator",
    "cashPrice": 3.97,
    "basis": -0.51,
    "freightCost": 0,
    "netPrice": 0,
    "city": "Jamestown",
    "state": "ND",
    "region": "Central ND",
    "lat": 46.9106,
    "lng": -98.7084,
    "railAccessible": true,
    "nearTransload": true,
    "contactName": "Grain Desk",
    "contactPhone": "(701) 660-5015",
    "website": "",
    "lastUpdated": "2026-02-18T19:06:52.184Z",
    "confidenceScore": 99,
    "verified": true,
    "cropType": "Yellow Corn",
    "organic": false,
    "railConfidence": 100
  },
  {
    "id": "dir-0019",
    "name": "CHS Fairmont",
    "type": "elevator",
    "cashPrice": 4.16,
    "basis": -0.32,
    "freightCost": 0,
    "netPrice": 0,
    "city": "Fairmont",
    "state": "MN",
    "region": "Southern MN",
    "lat": 43.6519,
    "lng": -94.4611,
    "railAccessible": false,
    "nearTransload": false,
    "contactName": "Grain Desk",
    "contactPhone": "(651) 909-9962",
    "website": "https://www.chsinc.com",
    "lastUpdated": "2026-02-18T19:06:52.184Z",
    "confidenceScore": 64,
    "verified": false,
    "cropType": "Yellow Corn",
    "organic": false,
    "railConfidence": 59
  },
  {
    "id": "dir-0020",
    "name": "POET Biorefining Glenville",
    "type": "ethanol",
    "cashPrice": 4.17,
    "basis": -0.31,
    "freightCost": 0,
    "netPrice": 0,
    "city": "Glenville",
    "state": "MN",
    "region": "Southern MN",
    "lat": 43.5733,
    "lng": -93.2794,
    "railAccessible": false,
    "nearTransload": false,
    "contactName": "Grain Desk",
    "contactPhone": "(651) 357-2506",
    "website": "https://poet.com",
    "lastUpdated": "2026-02-18T19:06:52.184Z",
    "confidenceScore": 50,
    "verified": false,
    "cropType": "Yellow Corn",
    "organic": false,
    "railConfidence": 37
  },
  {
    "id": "dir-0021",
    "name": "Al-Corn Clean Fuel",
    "type": "ethanol",
    "cashPrice": 4.17,
    "basis": -0.31,
    "freightCost": 0,
    "netPrice": 0,
    "city": "Claremont",
    "state": "MN",
    "region": "SE Minnesota",
    "lat": 44.0486,
    "lng": -92.9967,
    "railAccessible": false,
    "nearTransload": false,
    "contactName": "Grain Desk",
    "contactPhone": "(507) 528-2494",
    "website": "",
    "lastUpdated": "2026-02-18T19:06:52.184Z",
    "confidenceScore": 50,
    "verified": false,
    "cropType": "Yellow Corn",
    "organic": false,
    "railConfidence": 46
  },
  {
    "id": "dir-0022",
    "name": "Bushmills Ethanol",
    "type": "ethanol",
    "cashPrice": 4.15,
    "basis": -0.33,
    "freightCost": 0,
    "netPrice": 0,
    "city": "Atwater",
    "state": "MN",
    "region": "Central MN",
    "lat": 45.1386,
    "lng": -94.7772,
    "railAccessible": false,
    "nearTransload": false,
    "contactName": "Grain Desk",
    "contactPhone": "(763) 142-8777",
    "website": "",
    "lastUpdated": "2026-02-18T19:06:52.184Z",
    "confidenceScore": 67,
    "verified": false,
    "cropType": "Yellow Corn",
    "organic": false,
    "railConfidence": 59
  },
  {
    "id": "dir-0023",
    "name": "Granite Falls Energy",
    "type": "ethanol",
    "cashPrice": 4.12,
    "basis": -0.36,
    "freightCost": 0,
    "netPrice": 0,
    "city": "Granite Falls",
    "state": "MN",
    "region": "SW Minnesota",
    "lat": 44.8094,
    "lng": -95.5461,
    "railAccessible": true,
    "nearTransload": false,
    "contactName": "Grain Desk",
    "contactPhone": "(320) 564-3100",
    "website": "",
    "lastUpdated": "2026-02-18T19:06:52.184Z",
    "confidenceScore": 79,
    "verified": true,
    "cropType": "Yellow Corn",
    "organic": false,
    "railConfidence": 75
  },
  {
    "id": "dir-0024",
    "name": "Highwater Ethanol",
    "type": "ethanol",
    "cashPrice": 4.13,
    "basis": -0.35,
    "freightCost": 0,
    "netPrice": 0,
    "city": "Lamberton",
    "state": "MN",
    "region": "SW Minnesota",
    "lat": 44.2286,
    "lng": -95.2636,
    "railAccessible": true,
    "nearTransload": true,
    "contactName": "Grain Desk",
    "contactPhone": "(507) 172-8216",
    "website": "",
    "lastUpdated": "2026-02-18T19:06:52.184Z",
    "confidenceScore": 99,
    "verified": true,
    "cropType": "Yellow Corn",
    "organic": false,
    "railConfidence": 97
  },
  {
    "id": "dir-0025",
    "name": "Southwest Georgia Farm Credit",
    "type": "ethanol",
    "cashPrice": 4.11,
    "basis": -0.37,
    "freightCost": 0,
    "netPrice": 0,
    "city": "Benson",
    "state": "MN",
    "region": "West Central MN",
    "lat": 45.315,
    "lng": -95.6,
    "railAccessible": false,
    "nearTransload": false,
    "contactName": "Grain Desk",
    "contactPhone": "(218) 797-1559",
    "website": "",
    "lastUpdated": "2026-02-18T19:06:52.184Z",
    "confidenceScore": 50,
    "verified": false,
    "cropType": "Yellow Corn",
    "organic": false,
    "railConfidence": 38
  },
  {
    "id": "dir-0026",
    "name": "ADM Marshall",
    "type": "crush",
    "cashPrice": 4.12,
    "basis": -0.36,
    "freightCost": 0,
    "netPrice": 0,
    "city": "Marshall",
    "state": "MN",
    "region": "SW Minnesota",
    "lat": 44.4469,
    "lng": -95.7886,
    "railAccessible": true,
    "nearTransload": true,
    "contactName": "Grain Desk",
    "contactPhone": "(651) 659-1339",
    "website": "https://www.adm.com",
    "lastUpdated": "2026-02-18T19:06:52.184Z",
    "confidenceScore": 99,
    "verified": true,
    "cropType": "Soybeans",
    "organic": false,
    "railConfidence": 99
  },
  {
    "id": "dir-0027",
    "name": "Cargill Minneapolis",
    "type": "processor",
    "cashPrice": 4.3,
    "basis": -0.18,
    "freightCost": 0,
    "netPrice": 0,
    "city": "Minneapolis",
    "state": "MN",
    "region": "Twin Cities",
    "lat": 44.9778,
    "lng": -93.265,
    "railAccessible": true,
    "nearTransload": true,
    "contactName": "Grain Desk",
    "contactPhone": "(218) 860-1570",
    "website": "https://www.cargill.com/agriculture",
    "lastUpdated": "2026-02-18T19:06:52.184Z",
    "confidenceScore": 99,
    "verified": true,
    "cropType": "Yellow Corn",
    "organic": false,
    "railConfidence": 100
  },
  {
    "id": "dir-0028",
    "name": "AGP Dawson",
    "type": "crush",
    "cashPrice": 4.08,
    "basis": -0.4,
    "freightCost": 0,
    "netPrice": 0,
    "city": "Dawson",
    "state": "MN",
    "region": "West Central MN",
    "lat": 44.9328,
    "lng": -96.0544,
    "railAccessible": false,
    "nearTransload": false,
    "contactName": "Grain Desk",
    "contactPhone": "(651) 184-5679",
    "website": "",
    "lastUpdated": "2026-02-18T19:06:52.184Z",
    "confidenceScore": 63,
    "verified": false,
    "cropType": "Soybeans",
    "organic": false,
    "railConfidence": 56
  },
  {
    "id": "dir-0029",
    "name": "CHS Inver Grove Heights",
    "type": "processor",
    "cashPrice": 4.31,
    "basis": -0.17,
    "freightCost": 0,
    "netPrice": 0,
    "city": "Inver Grove Heights",
    "state": "MN",
    "region": "Twin Cities",
    "lat": 44.8483,
    "lng": -93.0427,
    "railAccessible": true,
    "nearTransload": true,
    "contactName": "Grain Desk",
    "contactPhone": "(320) 667-2774",
    "website": "https://www.chsinc.com",
    "lastUpdated": "2026-02-18T19:06:52.184Z",
    "confidenceScore": 99,
    "verified": true,
    "cropType": "Yellow Corn",
    "organic": false,
    "railConfidence": 100
  },
  {
    "id": "dir-0030",
    "name": "Rahr Malting",
    "type": "processor",
    "cashPrice": 4.28,
    "basis": -0.2,
    "freightCost": 0,
    "netPrice": 0,
    "city": "Shakopee",
    "state": "MN",
    "region": "Twin Cities",
    "lat": 44.7983,
    "lng": -93.5269,
    "railAccessible": true,
    "nearTransload": true,
    "contactName": "Grain Desk",
    "contactPhone": "(763) 452-2609",
    "website": "",
    "lastUpdated": "2026-02-18T19:06:52.184Z",
    "confidenceScore": 99,
    "verified": true,
    "cropType": "Yellow Corn",
    "organic": false,
    "railConfidence": 96
  },
  {
    "id": "dir-0031",
    "name": "Bunge North America Mankato",
    "type": "crush",
    "cashPrice": 4.2,
    "basis": -0.28,
    "freightCost": 0,
    "netPrice": 0,
    "city": "Mankato",
    "state": "MN",
    "region": "Southern MN",
    "lat": 44.1636,
    "lng": -93.9994,
    "railAccessible": true,
    "nearTransload": true,
    "contactName": "Grain Desk",
    "contactPhone": "(651) 859-4185",
    "website": "https://www.bunge.com",
    "lastUpdated": "2026-02-18T19:06:52.184Z",
    "confidenceScore": 99,
    "verified": true,
    "cropType": "Soybeans",
    "organic": false,
    "railConfidence": 100
  },
  {
    "id": "dir-0032",
    "name": "Farmers Cooperative Elevator",
    "type": "elevator",
    "cashPrice": 4.11,
    "basis": -0.37,
    "freightCost": 0,
    "netPrice": 0,
    "city": "Hanley Falls",
    "state": "MN",
    "region": "SW Minnesota",
    "lat": 44.69,
    "lng": -95.61,
    "railAccessible": true,
    "nearTransload": false,
    "contactName": "Grain Desk",
    "contactPhone": "(320) 997-8531",
    "website": "",
    "lastUpdated": "2026-02-18T19:06:52.184Z",
    "confidenceScore": 94,
    "verified": true,
    "cropType": "Yellow Corn",
    "organic": false,
    "railConfidence": 86
  },
  {
    "id": "dir-0033",
    "name": "Harvest Land Cooperative",
    "type": "elevator",
    "cashPrice": 4.11,
    "basis": -0.37,
    "freightCost": 0,
    "netPrice": 0,
    "city": "Morgan",
    "state": "MN",
    "region": "SW Minnesota",
    "lat": 44.4136,
    "lng": -94.9261,
    "railAccessible": true,
    "nearTransload": false,
    "contactName": "Grain Desk",
    "contactPhone": "(320) 570-1281",
    "website": "",
    "lastUpdated": "2026-02-18T19:06:52.184Z",
    "confidenceScore": 80,
    "verified": true,
    "cropType": "Yellow Corn",
    "organic": false,
    "railConfidence": 77
  },
  {
    "id": "dir-0034",
    "name": "Centra Sota Cooperative",
    "type": "elevator",
    "cashPrice": 4.17,
    "basis": -0.31,
    "freightCost": 0,
    "netPrice": 0,
    "city": "St. Cloud",
    "state": "MN",
    "region": "Central MN",
    "lat": 45.56,
    "lng": -94.16,
    "railAccessible": true,
    "nearTransload": true,
    "contactName": "Grain Desk",
    "contactPhone": "(218) 124-3152",
    "website": "",
    "lastUpdated": "2026-02-18T19:06:52.184Z",
    "confidenceScore": 99,
    "verified": true,
    "cropType": "Yellow Corn",
    "organic": false,
    "railConfidence": 100
  },
  {
    "id": "dir-0035",
    "name": "POET Biorefining Chancellor",
    "type": "ethanol",
    "cashPrice": 4.08,
    "basis": -0.4,
    "freightCost": 0,
    "netPrice": 0,
    "city": "Chancellor",
    "state": "SD",
    "region": "SE South Dakota",
    "lat": 43.3833,
    "lng": -96.9833,
    "railAccessible": true,
    "nearTransload": true,
    "contactName": "Grain Desk",
    "contactPhone": "(605) 180-2472",
    "website": "https://poet.com",
    "lastUpdated": "2026-02-18T19:06:52.184Z",
    "confidenceScore": 99,
    "verified": true,
    "cropType": "Yellow Corn",
    "organic": false,
    "railConfidence": 99
  },
  {
    "id": "dir-0036",
    "name": "Dakota Ethanol",
    "type": "ethanol",
    "cashPrice": 4.06,
    "basis": -0.42,
    "freightCost": 0,
    "netPrice": 0,
    "city": "Wentworth",
    "state": "SD",
    "region": "Eastern SD",
    "lat": 43.9933,
    "lng": -96.9667,
    "railAccessible": true,
    "nearTransload": false,
    "contactName": "Grain Desk",
    "contactPhone": "(605) 980-2000",
    "website": "",
    "lastUpdated": "2026-02-18T19:06:52.184Z",
    "confidenceScore": 90,
    "verified": true,
    "cropType": "Yellow Corn",
    "organic": false,
    "railConfidence": 87
  },
  {
    "id": "dir-0037",
    "name": "Glacial Lakes Energy",
    "type": "ethanol",
    "cashPrice": 4.09,
    "basis": -0.39,
    "freightCost": 0,
    "netPrice": 0,
    "city": "Watertown",
    "state": "SD",
    "region": "NE South Dakota",
    "lat": 44.9,
    "lng": -97.1147,
    "railAccessible": false,
    "nearTransload": false,
    "contactName": "Grain Desk",
    "contactPhone": "(605) 882-8480",
    "website": "",
    "lastUpdated": "2026-02-18T19:06:52.184Z",
    "confidenceScore": 50,
    "verified": false,
    "cropType": "Yellow Corn",
    "organic": false,
    "railConfidence": 45
  },
  {
    "id": "dir-0038",
    "name": "Valero Aurora",
    "type": "ethanol",
    "cashPrice": 4.09,
    "basis": -0.39,
    "freightCost": 0,
    "netPrice": 0,
    "city": "Aurora",
    "state": "SD",
    "region": "SE South Dakota",
    "lat": 43.7167,
    "lng": -96.6833,
    "railAccessible": true,
    "nearTransload": true,
    "contactName": "Grain Desk",
    "contactPhone": "(605) 474-4620",
    "website": "https://www.valero.com",
    "lastUpdated": "2026-02-18T19:06:52.184Z",
    "confidenceScore": 99,
    "verified": true,
    "cropType": "Yellow Corn",
    "organic": false,
    "railConfidence": 97
  },
  {
    "id": "dir-0039",
    "name": "Red River Commodities",
    "type": "processor",
    "cashPrice": 4.08,
    "basis": -0.4,
    "freightCost": 0,
    "netPrice": 0,
    "city": "Fargo/Moorhead",
    "state": "SD",
    "region": "Eastern SD",
    "lat": 43.5461,
    "lng": -96.7313,
    "railAccessible": true,
    "nearTransload": true,
    "contactName": "Grain Desk",
    "contactPhone": "(605) 616-7760",
    "website": "",
    "lastUpdated": "2026-02-18T19:06:52.184Z",
    "confidenceScore": 99,
    "verified": true,
    "cropType": "Yellow Corn",
    "organic": false,
    "railConfidence": 100
  },
  {
    "id": "dir-0040",
    "name": "Agtegra Cooperative Aberdeen",
    "type": "elevator",
    "cashPrice": 4.05,
    "basis": -0.43,
    "freightCost": 0,
    "netPrice": 0,
    "city": "Aberdeen",
    "state": "SD",
    "region": "NE South Dakota",
    "lat": 45.4647,
    "lng": -98.4865,
    "railAccessible": false,
    "nearTransload": false,
    "contactName": "Grain Desk",
    "contactPhone": "(605) 682-1328",
    "website": "",
    "lastUpdated": "2026-02-18T19:06:52.184Z",
    "confidenceScore": 50,
    "verified": false,
    "cropType": "Yellow Corn",
    "organic": false,
    "railConfidence": 21
  },
  {
    "id": "dir-0041",
    "name": "Agtegra Cooperative Huron",
    "type": "elevator",
    "cashPrice": 4.02,
    "basis": -0.46,
    "freightCost": 0,
    "netPrice": 0,
    "city": "Huron",
    "state": "SD",
    "region": "Central SD",
    "lat": 44.3631,
    "lng": -98.2147,
    "railAccessible": false,
    "nearTransload": false,
    "contactName": "Grain Desk",
    "contactPhone": "(605) 302-5319",
    "website": "",
    "lastUpdated": "2026-02-18T19:06:52.184Z",
    "confidenceScore": 50,
    "verified": false,
    "cropType": "Yellow Corn",
    "organic": false,
    "railConfidence": 29
  },
  {
    "id": "dir-0042",
    "name": "South Dakota Wheat Growers",
    "type": "elevator",
    "cashPrice": 4.05,
    "basis": -0.43,
    "freightCost": 0,
    "netPrice": 0,
    "city": "Aberdeen",
    "state": "SD",
    "region": "NE South Dakota",
    "lat": 45.4647,
    "lng": -98.4865,
    "railAccessible": false,
    "nearTransload": false,
    "contactName": "Grain Desk",
    "contactPhone": "(605) 436-9182",
    "website": "",
    "lastUpdated": "2026-02-18T19:06:52.184Z",
    "confidenceScore": 50,
    "verified": false,
    "cropType": "Wheat",
    "organic": false,
    "railConfidence": 21
  },
  {
    "id": "dir-0043",
    "name": "Ringneck Energy",
    "type": "ethanol",
    "cashPrice": 4.03,
    "basis": -0.45,
    "freightCost": 0,
    "netPrice": 0,
    "city": "Onida",
    "state": "SD",
    "region": "Central SD",
    "lat": 44.7072,
    "lng": -100.06,
    "railAccessible": false,
    "nearTransload": false,
    "contactName": "Grain Desk",
    "contactPhone": "(605) 947-5098",
    "website": "",
    "lastUpdated": "2026-02-18T19:06:52.184Z",
    "confidenceScore": 50,
    "verified": false,
    "cropType": "Yellow Corn",
    "organic": false,
    "railConfidence": 0
  },
  {
    "id": "dir-0044",
    "name": "POET Biorefining Emmetsburg",
    "type": "ethanol",
    "cashPrice": 4.22,
    "basis": -0.26,
    "freightCost": 0,
    "netPrice": 0,
    "city": "Emmetsburg",
    "state": "IA",
    "region": "NW Iowa",
    "lat": 43.1119,
    "lng": -94.6831,
    "railAccessible": false,
    "nearTransload": false,
    "contactName": "Grain Desk",
    "contactPhone": "(712) 717-8374",
    "website": "https://poet.com",
    "lastUpdated": "2026-02-18T19:06:52.184Z",
    "confidenceScore": 50,
    "verified": false,
    "cropType": "Yellow Corn",
    "organic": false,
    "railConfidence": 32
  },
  {
    "id": "dir-0045",
    "name": "Lincolnway Energy",
    "type": "ethanol",
    "cashPrice": 4.28,
    "basis": -0.2,
    "freightCost": 0,
    "netPrice": 0,
    "city": "Nevada",
    "state": "IA",
    "region": "Central Iowa",
    "lat": 42.0219,
    "lng": -93.4517,
    "railAccessible": true,
    "nearTransload": true,
    "contactName": "Grain Desk",
    "contactPhone": "(641) 919-7519",
    "website": "https://www.lincolnwayenergy.com",
    "lastUpdated": "2026-02-18T19:06:52.184Z",
    "confidenceScore": 99,
    "verified": true,
    "cropType": "Yellow Corn",
    "organic": false,
    "railConfidence": 99
  },
  {
    "id": "dir-0046",
    "name": "Big River Resources West Burlington",
    "type": "ethanol",
    "cashPrice": 4.3,
    "basis": -0.18,
    "freightCost": 0,
    "netPrice": 0,
    "city": "West Burlington",
    "state": "IA",
    "region": "SE Iowa",
    "lat": 40.8253,
    "lng": -91.1694,
    "railAccessible": true,
    "nearTransload": true,
    "contactName": "Grain Desk",
    "contactPhone": "(563) 249-3605",
    "website": "https://www.bigriverresources.com",
    "lastUpdated": "2026-02-18T19:06:52.184Z",
    "confidenceScore": 98,
    "verified": true,
    "cropType": "Yellow Corn",
    "organic": false,
    "railConfidence": 96
  },
  {
    "id": "dir-0047",
    "name": "Hawkeye Gold Ethanol",
    "type": "ethanol",
    "cashPrice": 4.27,
    "basis": -0.21,
    "freightCost": 0,
    "netPrice": 0,
    "city": "Iowa Falls",
    "state": "IA",
    "region": "Central Iowa",
    "lat": 42.5219,
    "lng": -93.2514,
    "railAccessible": true,
    "nearTransload": false,
    "contactName": "Grain Desk",
    "contactPhone": "(712) 801-2929",
    "website": "",
    "lastUpdated": "2026-02-18T19:06:52.184Z",
    "confidenceScore": 68,
    "verified": false,
    "cropType": "Yellow Corn",
    "organic": false,
    "railConfidence": 66
  },
  {
    "id": "dir-0048",
    "name": "Southwest Iowa Renewable Energy",
    "type": "ethanol",
    "cashPrice": 4.25,
    "basis": -0.23,
    "freightCost": 0,
    "netPrice": 0,
    "city": "Council Bluffs",
    "state": "IA",
    "region": "SW Iowa",
    "lat": 41.2619,
    "lng": -95.8608,
    "railAccessible": true,
    "nearTransload": true,
    "contactName": "Grain Desk",
    "contactPhone": "(563) 619-7078",
    "website": "",
    "lastUpdated": "2026-02-18T19:06:52.184Z",
    "confidenceScore": 97,
    "verified": true,
    "cropType": "Yellow Corn",
    "organic": false,
    "railConfidence": 96
  },
  {
    "id": "dir-0049",
    "name": "Heartland Co-op",
    "type": "elevator",
    "cashPrice": 4.29,
    "basis": -0.19,
    "freightCost": 0,
    "netPrice": 0,
    "city": "West Des Moines",
    "state": "IA",
    "region": "Central Iowa",
    "lat": 41.5772,
    "lng": -93.7113,
    "railAccessible": true,
    "nearTransload": true,
    "contactName": "Grain Desk",
    "contactPhone": "(563) 924-8821",
    "website": "https://www.heartlandco-op.com",
    "lastUpdated": "2026-02-18T19:06:52.184Z",
    "confidenceScore": 99,
    "verified": true,
    "cropType": "Yellow Corn",
    "organic": false,
    "railConfidence": 96
  },
  {
    "id": "dir-0050",
    "name": "Landus Cooperative",
    "type": "elevator",
    "cashPrice": 4.25,
    "basis": -0.23,
    "freightCost": 0,
    "netPrice": 0,
    "city": "Ames",
    "state": "IA",
    "region": "Central Iowa",
    "lat": 42.0347,
    "lng": -93.62,
    "railAccessible": true,
    "nearTransload": true,
    "contactName": "Grain Desk",
    "contactPhone": "(563) 254-1721",
    "website": "https://www.landuscooperative.com",
    "lastUpdated": "2026-02-18T19:06:52.184Z",
    "confidenceScore": 91,
    "verified": true,
    "cropType": "Yellow Corn",
    "organic": false,
    "railConfidence": 90
  },
  {
    "id": "dir-0051",
    "name": "ADM Cedar Rapids",
    "type": "processor",
    "cashPrice": 4.36,
    "basis": -0.12,
    "freightCost": 0,
    "netPrice": 0,
    "city": "Cedar Rapids",
    "state": "IA",
    "region": "Eastern Iowa",
    "lat": 41.9779,
    "lng": -91.6656,
    "railAccessible": false,
    "nearTransload": false,
    "contactName": "Grain Desk",
    "contactPhone": "(515) 705-1858",
    "website": "https://www.adm.com",
    "lastUpdated": "2026-02-18T19:06:52.184Z",
    "confidenceScore": 60,
    "verified": false,
    "cropType": "Yellow Corn",
    "organic": false,
    "railConfidence": 53
  },
  {
    "id": "dir-0052",
    "name": "Cargill Eddyville",
    "type": "processor",
    "cashPrice": 4.29,
    "basis": -0.19,
    "freightCost": 0,
    "netPrice": 0,
    "city": "Eddyville",
    "state": "IA",
    "region": "SE Iowa",
    "lat": 41.1564,
    "lng": -92.6338,
    "railAccessible": false,
    "nearTransload": false,
    "contactName": "Grain Desk",
    "contactPhone": "(712) 676-3721",
    "website": "https://www.cargill.com/agriculture",
    "lastUpdated": "2026-02-18T19:06:52.184Z",
    "confidenceScore": 50,
    "verified": false,
    "cropType": "Yellow Corn",
    "organic": false,
    "railConfidence": 35
  },
  {
    "id": "dir-0053",
    "name": "AGP Eagle Grove",
    "type": "crush",
    "cashPrice": 4.21,
    "basis": -0.27,
    "freightCost": 0,
    "netPrice": 0,
    "city": "Eagle Grove",
    "state": "IA",
    "region": "NW Iowa",
    "lat": 42.6644,
    "lng": -93.9047,
    "railAccessible": false,
    "nearTransload": false,
    "contactName": "Grain Desk",
    "contactPhone": "(563) 842-3990",
    "website": "",
    "lastUpdated": "2026-02-18T19:06:52.184Z",
    "confidenceScore": 50,
    "verified": false,
    "cropType": "Soybeans",
    "organic": false,
    "railConfidence": 40
  },
  {
    "id": "dir-0054",
    "name": "Bunge Council Bluffs",
    "type": "crush",
    "cashPrice": 4.25,
    "basis": -0.23,
    "freightCost": 0,
    "netPrice": 0,
    "city": "Council Bluffs",
    "state": "IA",
    "region": "SW Iowa",
    "lat": 41.2619,
    "lng": -95.8608,
    "railAccessible": true,
    "nearTransload": true,
    "contactName": "Grain Desk",
    "contactPhone": "(319) 920-8960",
    "website": "https://www.bunge.com",
    "lastUpdated": "2026-02-18T19:06:52.184Z",
    "confidenceScore": 99,
    "verified": true,
    "cropType": "Soybeans",
    "organic": false,
    "railConfidence": 96
  },
  {
    "id": "dir-0055",
    "name": "Green Plains Superior",
    "type": "ethanol",
    "cashPrice": 4.23,
    "basis": -0.25,
    "freightCost": 0,
    "netPrice": 0,
    "city": "Superior",
    "state": "IA",
    "region": "NW Iowa",
    "lat": 43.4253,
    "lng": -94.95,
    "railAccessible": false,
    "nearTransload": false,
    "contactName": "Grain Desk",
    "contactPhone": "(319) 337-7497",
    "website": "https://www.greenplains.com",
    "lastUpdated": "2026-02-18T19:06:52.184Z",
    "confidenceScore": 51,
    "verified": false,
    "cropType": "Yellow Corn",
    "organic": false,
    "railConfidence": 48
  },
  {
    "id": "dir-0056",
    "name": "Valero Albert City",
    "type": "ethanol",
    "cashPrice": 4.23,
    "basis": -0.25,
    "freightCost": 0,
    "netPrice": 0,
    "city": "Albert City",
    "state": "IA",
    "region": "NW Iowa",
    "lat": 42.7836,
    "lng": -94.97,
    "railAccessible": false,
    "nearTransload": false,
    "contactName": "Grain Desk",
    "contactPhone": "(319) 260-5259",
    "website": "https://www.valero.com",
    "lastUpdated": "2026-02-18T19:06:52.184Z",
    "confidenceScore": 50,
    "verified": false,
    "cropType": "Yellow Corn",
    "organic": false,
    "railConfidence": 25
  },
  {
    "id": "dir-0057",
    "name": "Key Cooperative",
    "type": "elevator",
    "cashPrice": 4.3,
    "basis": -0.18,
    "freightCost": 0,
    "netPrice": 0,
    "city": "Grinnell",
    "state": "IA",
    "region": "Central Iowa",
    "lat": 41.7433,
    "lng": -92.7224,
    "railAccessible": false,
    "nearTransload": false,
    "contactName": "Grain Desk",
    "contactPhone": "(712) 948-2027",
    "website": "",
    "lastUpdated": "2026-02-18T19:06:52.184Z",
    "confidenceScore": 52,
    "verified": false,
    "cropType": "Yellow Corn",
    "organic": false,
    "railConfidence": 52
  },
  {
    "id": "dir-0058",
    "name": "NEW Cooperative",
    "type": "elevator",
    "cashPrice": 4.26,
    "basis": -0.22,
    "freightCost": 0,
    "netPrice": 0,
    "city": "Fort Dodge",
    "state": "IA",
    "region": "NW Iowa",
    "lat": 42.4975,
    "lng": -94.168,
    "railAccessible": false,
    "nearTransload": false,
    "contactName": "Grain Desk",
    "contactPhone": "(563) 680-4055",
    "website": "",
    "lastUpdated": "2026-02-18T19:06:52.184Z",
    "confidenceScore": 50,
    "verified": false,
    "cropType": "Yellow Corn",
    "organic": false,
    "railConfidence": 41
  },
  {
    "id": "dir-0059",
    "name": "Farmers Cooperative Society",
    "type": "elevator",
    "cashPrice": 4.23,
    "basis": -0.25,
    "freightCost": 0,
    "netPrice": 0,
    "city": "Sioux Center",
    "state": "IA",
    "region": "NW Iowa",
    "lat": 43.0786,
    "lng": -96.1756,
    "railAccessible": false,
    "nearTransload": false,
    "contactName": "Grain Desk",
    "contactPhone": "(319) 846-9897",
    "website": "",
    "lastUpdated": "2026-02-18T19:06:52.184Z",
    "confidenceScore": 53,
    "verified": false,
    "cropType": "Yellow Corn",
    "organic": false,
    "railConfidence": 47
  },
  {
    "id": "dir-0060",
    "name": "Green Plains York",
    "type": "ethanol",
    "cashPrice": 4.18,
    "basis": -0.3,
    "freightCost": 0,
    "netPrice": 0,
    "city": "York",
    "state": "NE",
    "region": "Central NE",
    "lat": 40.8681,
    "lng": -97.592,
    "railAccessible": true,
    "nearTransload": true,
    "contactName": "Grain Desk",
    "contactPhone": "(402) 765-6971",
    "website": "https://www.greenplains.com",
    "lastUpdated": "2026-02-18T19:06:52.184Z",
    "confidenceScore": 96,
    "verified": true,
    "cropType": "Yellow Corn",
    "organic": false,
    "railConfidence": 93
  },
  {
    "id": "dir-0061",
    "name": "KAAPA Ethanol Minden",
    "type": "ethanol",
    "cashPrice": 4.19,
    "basis": -0.29,
    "freightCost": 0,
    "netPrice": 0,
    "city": "Minden",
    "state": "NE",
    "region": "Central NE",
    "lat": 40.4989,
    "lng": -98.9478,
    "railAccessible": true,
    "nearTransload": false,
    "contactName": "Grain Desk",
    "contactPhone": "(402) 301-9760",
    "website": "",
    "lastUpdated": "2026-02-18T19:06:52.184Z",
    "confidenceScore": 86,
    "verified": true,
    "cropType": "Yellow Corn",
    "organic": false,
    "railConfidence": 77
  },
  {
    "id": "dir-0062",
    "name": "Pacific Ethanol",
    "type": "ethanol",
    "cashPrice": 4.16,
    "basis": -0.32,
    "freightCost": 0,
    "netPrice": 0,
    "city": "Aurora",
    "state": "NE",
    "region": "Central NE",
    "lat": 40.8611,
    "lng": -98.0042,
    "railAccessible": true,
    "nearTransload": true,
    "contactName": "Grain Desk",
    "contactPhone": "(308) 307-8490",
    "website": "",
    "lastUpdated": "2026-02-18T19:06:52.184Z",
    "confidenceScore": 93,
    "verified": true,
    "cropType": "Yellow Corn",
    "organic": false,
    "railConfidence": 92
  },
  {
    "id": "dir-0063",
    "name": "Chief Ethanol Hastings",
    "type": "ethanol",
    "cashPrice": 4.18,
    "basis": -0.3,
    "freightCost": 0,
    "netPrice": 0,
    "city": "Hastings",
    "state": "NE",
    "region": "South Central NE",
    "lat": 40.5864,
    "lng": -98.39,
    "railAccessible": true,
    "nearTransload": false,
    "contactName": "Grain Desk",
    "contactPhone": "(402) 413-1070",
    "website": "",
    "lastUpdated": "2026-02-18T19:06:52.184Z",
    "confidenceScore": 89,
    "verified": true,
    "cropType": "Yellow Corn",
    "organic": false,
    "railConfidence": 85
  },
  {
    "id": "dir-0064",
    "name": "Scoular North Platte",
    "type": "elevator",
    "cashPrice": 4.1,
    "basis": -0.38,
    "freightCost": 0,
    "netPrice": 0,
    "city": "North Platte",
    "state": "NE",
    "region": "Western NE",
    "lat": 41.14,
    "lng": -100.77,
    "railAccessible": true,
    "nearTransload": true,
    "contactName": "Grain Desk",
    "contactPhone": "(308) 291-8995",
    "website": "https://www.scoular.com",
    "lastUpdated": "2026-02-18T19:06:52.184Z",
    "confidenceScore": 99,
    "verified": true,
    "cropType": "Yellow Corn",
    "organic": false,
    "railConfidence": 99
  },
  {
    "id": "dir-0065",
    "name": "ADM Columbus",
    "type": "processor",
    "cashPrice": 4.16,
    "basis": -0.32,
    "freightCost": 0,
    "netPrice": 0,
    "city": "Columbus",
    "state": "NE",
    "region": "Central NE",
    "lat": 41.4297,
    "lng": -97.3684,
    "railAccessible": true,
    "nearTransload": false,
    "contactName": "Grain Desk",
    "contactPhone": "(402) 671-8313",
    "website": "https://www.adm.com",
    "lastUpdated": "2026-02-18T19:06:52.184Z",
    "confidenceScore": 74,
    "verified": false,
    "cropType": "Yellow Corn",
    "organic": false,
    "railConfidence": 66
  },
  {
    "id": "dir-0066",
    "name": "Cargill Blair",
    "type": "processor",
    "cashPrice": 4.23,
    "basis": -0.25,
    "freightCost": 0,
    "netPrice": 0,
    "city": "Blair",
    "state": "NE",
    "region": "Eastern NE",
    "lat": 41.5439,
    "lng": -96.125,
    "railAccessible": true,
    "nearTransload": true,
    "contactName": "Grain Desk",
    "contactPhone": "(402) 626-4841",
    "website": "https://www.cargill.com/agriculture",
    "lastUpdated": "2026-02-18T19:06:52.184Z",
    "confidenceScore": 99,
    "verified": true,
    "cropType": "Yellow Corn",
    "organic": false,
    "railConfidence": 96
  },
  {
    "id": "dir-0067",
    "name": "AGP Hastings",
    "type": "crush",
    "cashPrice": 4.18,
    "basis": -0.3,
    "freightCost": 0,
    "netPrice": 0,
    "city": "Hastings",
    "state": "NE",
    "region": "South Central NE",
    "lat": 40.5864,
    "lng": -98.39,
    "railAccessible": true,
    "nearTransload": false,
    "contactName": "Grain Desk",
    "contactPhone": "(308) 825-7516",
    "website": "",
    "lastUpdated": "2026-02-18T19:06:52.184Z",
    "confidenceScore": 88,
    "verified": true,
    "cropType": "Soybeans",
    "organic": false,
    "railConfidence": 85
  },
  {
    "id": "dir-0068",
    "name": "The Andersons Albion",
    "type": "ethanol",
    "cashPrice": 4.21,
    "basis": -0.27,
    "freightCost": 0,
    "netPrice": 0,
    "city": "Albion",
    "state": "NE",
    "region": "NE Nebraska",
    "lat": 41.6911,
    "lng": -98.0036,
    "railAccessible": false,
    "nearTransload": false,
    "contactName": "Grain Desk",
    "contactPhone": "(402) 701-1161",
    "website": "https://www.theandersons.com",
    "lastUpdated": "2026-02-18T19:06:52.184Z",
    "confidenceScore": 50,
    "verified": false,
    "cropType": "Yellow Corn",
    "organic": false,
    "railConfidence": 40
  },
  {
    "id": "dir-0069",
    "name": "Nebraska Grain Terminal",
    "type": "shuttle",
    "cashPrice": 4.2,
    "basis": -0.28,
    "freightCost": 0,
    "netPrice": 0,
    "city": "Grand Island",
    "state": "NE",
    "region": "Central NE",
    "lat": 40.925,
    "lng": -98.342,
    "railAccessible": true,
    "nearTransload": true,
    "contactName": "Grain Desk",
    "contactPhone": "(402) 741-4414",
    "website": "",
    "lastUpdated": "2026-02-18T19:06:52.184Z",
    "confidenceScore": 99,
    "verified": true,
    "cropType": "Yellow Corn",
    "organic": false,
    "railConfidence": 100
  },
  {
    "id": "dir-0070",
    "name": "Gavilon Grain Lincoln",
    "type": "elevator",
    "cashPrice": 4.18,
    "basis": -0.3,
    "freightCost": 0,
    "netPrice": 0,
    "city": "Lincoln",
    "state": "NE",
    "region": "SE Nebraska",
    "lat": 40.8136,
    "lng": -96.7026,
    "railAccessible": true,
    "nearTransload": true,
    "contactName": "Grain Desk",
    "contactPhone": "(308) 568-5815",
    "website": "",
    "lastUpdated": "2026-02-18T19:06:52.184Z",
    "confidenceScore": 99,
    "verified": true,
    "cropType": "Yellow Corn",
    "organic": false,
    "railConfidence": 100
  },
  {
    "id": "dir-0071",
    "name": "POET Biorefining Leipsic",
    "type": "ethanol",
    "cashPrice": 4.2,
    "basis": -0.28,
    "freightCost": 0,
    "netPrice": 0,
    "city": "Lexington",
    "state": "NE",
    "region": "Central NE",
    "lat": 40.7808,
    "lng": -99.7415,
    "railAccessible": true,
    "nearTransload": true,
    "contactName": "Grain Desk",
    "contactPhone": "(402) 134-8009",
    "website": "https://poet.com",
    "lastUpdated": "2026-02-18T19:06:52.184Z",
    "confidenceScore": 99,
    "verified": true,
    "cropType": "Yellow Corn",
    "organic": false,
    "railConfidence": 94
  },
  {
    "id": "dir-0072",
    "name": "Conestoga Energy Holdings",
    "type": "ethanol",
    "cashPrice": 4.1,
    "basis": -0.38,
    "freightCost": 0,
    "netPrice": 0,
    "city": "Liberal",
    "state": "KS",
    "region": "SW Kansas",
    "lat": 37.0439,
    "lng": -100.921,
    "railAccessible": false,
    "nearTransload": false,
    "contactName": "Grain Desk",
    "contactPhone": "(785) 637-9904",
    "website": "",
    "lastUpdated": "2026-02-18T19:06:52.184Z",
    "confidenceScore": 50,
    "verified": false,
    "cropType": "Yellow Corn",
    "organic": false,
    "railConfidence": 33
  },
  {
    "id": "dir-0073",
    "name": "Kansas Ethanol",
    "type": "ethanol",
    "cashPrice": 4.19,
    "basis": -0.29,
    "freightCost": 0,
    "netPrice": 0,
    "city": "Lyons",
    "state": "KS",
    "region": "Central KS",
    "lat": 38.345,
    "lng": -98.2028,
    "railAccessible": true,
    "nearTransload": true,
    "contactName": "Grain Desk",
    "contactPhone": "(316) 278-3795",
    "website": "",
    "lastUpdated": "2026-02-18T19:06:52.184Z",
    "confidenceScore": 99,
    "verified": true,
    "cropType": "Yellow Corn",
    "organic": false,
    "railConfidence": 94
  },
  {
    "id": "dir-0074",
    "name": "Western Plains Energy",
    "type": "ethanol",
    "cashPrice": 4.1,
    "basis": -0.38,
    "freightCost": 0,
    "netPrice": 0,
    "city": "Oakley",
    "state": "KS",
    "region": "NW Kansas",
    "lat": 39.1314,
    "lng": -100.853,
    "railAccessible": false,
    "nearTransload": false,
    "contactName": "Grain Desk",
    "contactPhone": "(785) 513-7718",
    "website": "",
    "lastUpdated": "2026-02-18T19:06:52.184Z",
    "confidenceScore": 50,
    "verified": false,
    "cropType": "Yellow Corn",
    "organic": false,
    "railConfidence": 24
  },
  {
    "id": "dir-0075",
    "name": "Skyland Grain Ulysses",
    "type": "elevator",
    "cashPrice": 4.14,
    "basis": -0.34,
    "freightCost": 0,
    "netPrice": 0,
    "city": "Ulysses",
    "state": "KS",
    "region": "SW Kansas",
    "lat": 37.5753,
    "lng": -101.355,
    "railAccessible": false,
    "nearTransload": false,
    "contactName": "Grain Desk",
    "contactPhone": "(316) 469-4178",
    "website": "",
    "lastUpdated": "2026-02-18T19:06:52.184Z",
    "confidenceScore": 54,
    "verified": false,
    "cropType": "Yellow Corn",
    "organic": false,
    "railConfidence": 50
  },
  {
    "id": "dir-0076",
    "name": "ADM Dodge City",
    "type": "processor",
    "cashPrice": 4.14,
    "basis": -0.34,
    "freightCost": 0,
    "netPrice": 0,
    "city": "Dodge City",
    "state": "KS",
    "region": "SW Kansas",
    "lat": 37.7528,
    "lng": -100.017,
    "railAccessible": true,
    "nearTransload": true,
    "contactName": "Grain Desk",
    "contactPhone": "(316) 282-3005",
    "website": "https://www.adm.com",
    "lastUpdated": "2026-02-18T19:06:52.184Z",
    "confidenceScore": 99,
    "verified": true,
    "cropType": "Yellow Corn",
    "organic": false,
    "railConfidence": 100
  },
  {
    "id": "dir-0077",
    "name": "Cargill Wichita",
    "type": "processor",
    "cashPrice": 4.18,
    "basis": -0.3,
    "freightCost": 0,
    "netPrice": 0,
    "city": "Wichita",
    "state": "KS",
    "region": "South Central KS",
    "lat": 37.6872,
    "lng": -97.3301,
    "railAccessible": true,
    "nearTransload": true,
    "contactName": "Grain Desk",
    "contactPhone": "(620) 348-7168",
    "website": "https://www.cargill.com/agriculture",
    "lastUpdated": "2026-02-18T19:06:52.184Z",
    "confidenceScore": 99,
    "verified": true,
    "cropType": "Yellow Corn",
    "organic": false,
    "railConfidence": 100
  },
  {
    "id": "dir-0078",
    "name": "Bartlett Grain Hutchinson",
    "type": "elevator",
    "cashPrice": 4.17,
    "basis": -0.31,
    "freightCost": 0,
    "netPrice": 0,
    "city": "Hutchinson",
    "state": "KS",
    "region": "Central KS",
    "lat": 38.0608,
    "lng": -97.9298,
    "railAccessible": true,
    "nearTransload": false,
    "contactName": "Grain Desk",
    "contactPhone": "(785) 613-9203",
    "website": "",
    "lastUpdated": "2026-02-18T19:06:52.184Z",
    "confidenceScore": 63,
    "verified": false,
    "cropType": "Yellow Corn",
    "organic": false,
    "railConfidence": 61
  },
  {
    "id": "dir-0079",
    "name": "Scoular Garden City",
    "type": "elevator",
    "cashPrice": 4.14,
    "basis": -0.34,
    "freightCost": 0,
    "netPrice": 0,
    "city": "Garden City",
    "state": "KS",
    "region": "SW Kansas",
    "lat": 37.9717,
    "lng": -100.873,
    "railAccessible": true,
    "nearTransload": true,
    "contactName": "Grain Desk",
    "contactPhone": "(785) 860-1621",
    "website": "https://www.scoular.com",
    "lastUpdated": "2026-02-18T19:06:52.184Z",
    "confidenceScore": 99,
    "verified": true,
    "cropType": "Yellow Corn",
    "organic": false,
    "railConfidence": 99
  },
  {
    "id": "dir-0080",
    "name": "Cargill Kansas City",
    "type": "export",
    "cashPrice": 4.31,
    "basis": -0.17,
    "freightCost": 0,
    "netPrice": 0,
    "city": "Kansas City",
    "state": "KS",
    "region": "Eastern KS",
    "lat": 39.0997,
    "lng": -94.5786,
    "railAccessible": true,
    "nearTransload": true,
    "contactName": "Grain Desk",
    "contactPhone": "(316) 323-7990",
    "website": "https://www.cargill.com/agriculture",
    "lastUpdated": "2026-02-18T19:06:52.184Z",
    "confidenceScore": 99,
    "verified": true,
    "cropType": "Yellow Corn",
    "organic": false,
    "railConfidence": 100
  },
  {
    "id": "dir-0081",
    "name": "Frontier Ag Oakley",
    "type": "elevator",
    "cashPrice": 4.09,
    "basis": -0.39,
    "freightCost": 0,
    "netPrice": 0,
    "city": "Oakley",
    "state": "KS",
    "region": "NW Kansas",
    "lat": 39.1314,
    "lng": -100.853,
    "railAccessible": false,
    "nearTransload": false,
    "contactName": "Grain Desk",
    "contactPhone": "(620) 435-6184",
    "website": "",
    "lastUpdated": "2026-02-18T19:06:52.184Z",
    "confidenceScore": 50,
    "verified": false,
    "cropType": "Yellow Corn",
    "organic": false,
    "railConfidence": 24
  },
  {
    "id": "dir-0082",
    "name": "High Plains Farm Credit",
    "type": "elevator",
    "cashPrice": 4.09,
    "basis": -0.39,
    "freightCost": 0,
    "netPrice": 0,
    "city": "Colby",
    "state": "KS",
    "region": "NW Kansas",
    "lat": 39.3956,
    "lng": -101.052,
    "railAccessible": false,
    "nearTransload": false,
    "contactName": "Grain Desk",
    "contactPhone": "(316) 886-6471",
    "website": "",
    "lastUpdated": "2026-02-18T19:06:52.184Z",
    "confidenceScore": 50,
    "verified": false,
    "cropType": "Yellow Corn",
    "organic": false,
    "railConfidence": 20
  },
  {
    "id": "dir-0083",
    "name": "White Energy Hereford",
    "type": "ethanol",
    "cashPrice": 4.59,
    "basis": 0.11,
    "freightCost": 0,
    "netPrice": 0,
    "city": "Hereford",
    "state": "TX",
    "region": "Texas Panhandle",
    "lat": 34.8156,
    "lng": -102.397,
    "railAccessible": true,
    "nearTransload": true,
    "contactName": "Grain Desk",
    "contactPhone": "(817) 408-2275",
    "website": "",
    "lastUpdated": "2026-02-18T19:06:52.184Z",
    "confidenceScore": 99,
    "verified": true,
    "cropType": "Yellow Corn",
    "organic": false,
    "railConfidence": 96
  },
  {
    "id": "dir-0084",
    "name": "Cactus Feeders",
    "type": "feedlot",
    "cashPrice": 4.59,
    "basis": 0.11,
    "freightCost": 0,
    "netPrice": 0,
    "city": "Amarillo",
    "state": "TX",
    "region": "Texas Panhandle",
    "lat": 35.222,
    "lng": -101.831,
    "railAccessible": true,
    "nearTransload": true,
    "contactName": "Grain Desk",
    "contactPhone": "(817) 173-7691",
    "website": "https://www.cactusfeeders.com",
    "lastUpdated": "2026-02-18T19:06:52.184Z",
    "confidenceScore": 99,
    "verified": true,
    "cropType": "Yellow Corn",
    "organic": false,
    "railConfidence": 100
  },
  {
    "id": "dir-0085",
    "name": "JBS Five Rivers Feedlot",
    "type": "feedlot",
    "cashPrice": 4.59,
    "basis": 0.11,
    "freightCost": 0,
    "netPrice": 0,
    "city": "Dalhart",
    "state": "TX",
    "region": "Texas Panhandle",
    "lat": 36.0595,
    "lng": -102.517,
    "railAccessible": false,
    "nearTransload": false,
    "contactName": "Grain Desk",
    "contactPhone": "(817) 860-8321",
    "website": "",
    "lastUpdated": "2026-02-18T19:06:52.184Z",
    "confidenceScore": 50,
    "verified": false,
    "cropType": "Yellow Corn",
    "organic": false,
    "railConfidence": 29
  },
  {
    "id": "dir-0086",
    "name": "Friona Industries",
    "type": "feedlot",
    "cashPrice": 4.6,
    "basis": 0.12,
    "freightCost": 0,
    "netPrice": 0,
    "city": "Friona",
    "state": "TX",
    "region": "Texas Panhandle",
    "lat": 34.6417,
    "lng": -102.724,
    "railAccessible": true,
    "nearTransload": true,
    "contactName": "Grain Desk",
    "contactPhone": "(713) 357-1593",
    "website": "",
    "lastUpdated": "2026-02-18T19:06:52.184Z",
    "confidenceScore": 99,
    "verified": true,
    "cropType": "Yellow Corn",
    "organic": false,
    "railConfidence": 97
  },
  {
    "id": "dir-0087",
    "name": "XIT Feeders",
    "type": "feedlot",
    "cashPrice": 4.6,
    "basis": 0.12,
    "freightCost": 0,
    "netPrice": 0,
    "city": "Dalhart",
    "state": "TX",
    "region": "Texas Panhandle",
    "lat": 36.0595,
    "lng": -102.517,
    "railAccessible": false,
    "nearTransload": false,
    "contactName": "Grain Desk",
    "contactPhone": "(806) 773-9486",
    "website": "",
    "lastUpdated": "2026-02-18T19:06:52.184Z",
    "confidenceScore": 50,
    "verified": false,
    "cropType": "Yellow Corn",
    "organic": false,
    "railConfidence": 29
  },
  {
    "id": "dir-0088",
    "name": "Cargill Amarillo",
    "type": "processor",
    "cashPrice": 4.6,
    "basis": 0.12,
    "freightCost": 0,
    "netPrice": 0,
    "city": "Amarillo",
    "state": "TX",
    "region": "Texas Panhandle",
    "lat": 35.222,
    "lng": -101.831,
    "railAccessible": true,
    "nearTransload": true,
    "contactName": "Grain Desk",
    "contactPhone": "(214) 432-4171",
    "website": "https://www.cargill.com/agriculture",
    "lastUpdated": "2026-02-18T19:06:52.184Z",
    "confidenceScore": 99,
    "verified": true,
    "cropType": "Yellow Corn",
    "organic": false,
    "railConfidence": 100
  },
  {
    "id": "dir-0089",
    "name": "Valero Houston",
    "type": "export",
    "cashPrice": 4.71,
    "basis": 0.23,
    "freightCost": 0,
    "netPrice": 0,
    "city": "Houston",
    "state": "TX",
    "region": "Texas Gulf",
    "lat": 29.7604,
    "lng": -95.3698,
    "railAccessible": true,
    "nearTransload": true,
    "contactName": "Grain Desk",
    "contactPhone": "(214) 575-3331",
    "website": "https://www.valero.com",
    "lastUpdated": "2026-02-18T19:06:52.184Z",
    "confidenceScore": 99,
    "verified": true,
    "cropType": "Yellow Corn",
    "organic": false,
    "railConfidence": 100
  },
  {
    "id": "dir-0090",
    "name": "ADM Galveston",
    "type": "export",
    "cashPrice": 4.72,
    "basis": 0.24,
    "freightCost": 0,
    "netPrice": 0,
    "city": "Galveston",
    "state": "TX",
    "region": "Texas Gulf",
    "lat": 29.3013,
    "lng": -94.7977,
    "railAccessible": true,
    "nearTransload": true,
    "contactName": "Grain Desk",
    "contactPhone": "(214) 654-9858",
    "website": "https://www.adm.com",
    "lastUpdated": "2026-02-18T19:06:52.184Z",
    "confidenceScore": 99,
    "verified": true,
    "cropType": "Yellow Corn",
    "organic": false,
    "railConfidence": 100
  },
  {
    "id": "dir-0091",
    "name": "Bunge Destrehan",
    "type": "export",
    "cashPrice": 4.55,
    "basis": 0.07,
    "freightCost": 0,
    "netPrice": 0,
    "city": "Dallas",
    "state": "TX",
    "region": "North Texas",
    "lat": 32.7767,
    "lng": -96.797,
    "railAccessible": true,
    "nearTransload": true,
    "contactName": "Grain Desk",
    "contactPhone": "(512) 923-9702",
    "website": "https://www.bunge.com",
    "lastUpdated": "2026-02-18T19:06:52.184Z",
    "confidenceScore": 99,
    "verified": true,
    "cropType": "Yellow Corn",
    "organic": false,
    "railConfidence": 100
  },
  {
    "id": "dir-0092",
    "name": "Attebury Grain Amarillo",
    "type": "elevator",
    "cashPrice": 4.58,
    "basis": 0.1,
    "freightCost": 0,
    "netPrice": 0,
    "city": "Amarillo",
    "state": "TX",
    "region": "Texas Panhandle",
    "lat": 35.222,
    "lng": -101.831,
    "railAccessible": true,
    "nearTransload": true,
    "contactName": "Grain Desk",
    "contactPhone": "(817) 372-9861",
    "website": "",
    "lastUpdated": "2026-02-18T19:06:52.184Z",
    "confidenceScore": 99,
    "verified": true,
    "cropType": "Yellow Corn",
    "organic": false,
    "railConfidence": 100
  },
  {
    "id": "dir-0093",
    "name": "DeBruce Grain Amarillo",
    "type": "elevator",
    "cashPrice": 4.6,
    "basis": 0.12,
    "freightCost": 0,
    "netPrice": 0,
    "city": "Amarillo",
    "state": "TX",
    "region": "Texas Panhandle",
    "lat": 35.1893,
    "lng": -101.85,
    "railAccessible": true,
    "nearTransload": true,
    "contactName": "Grain Desk",
    "contactPhone": "(713) 395-6013",
    "website": "",
    "lastUpdated": "2026-02-18T19:06:52.184Z",
    "confidenceScore": 99,
    "verified": true,
    "cropType": "Yellow Corn",
    "organic": false,
    "railConfidence": 99
  },
  {
    "id": "dir-0094",
    "name": "Sterling Ethanol",
    "type": "ethanol",
    "cashPrice": 4.33,
    "basis": -0.15,
    "freightCost": 0,
    "netPrice": 0,
    "city": "Sterling",
    "state": "CO",
    "region": "NE Colorado",
    "lat": 40.6255,
    "lng": -103.207,
    "railAccessible": true,
    "nearTransload": true,
    "contactName": "Grain Desk",
    "contactPhone": "(719) 575-7076",
    "website": "",
    "lastUpdated": "2026-02-18T19:06:52.184Z",
    "confidenceScore": 99,
    "verified": true,
    "cropType": "Yellow Corn",
    "organic": false,
    "railConfidence": 97
  },
  {
    "id": "dir-0095",
    "name": "Front Range Energy",
    "type": "ethanol",
    "cashPrice": 4.34,
    "basis": -0.14,
    "freightCost": 0,
    "netPrice": 0,
    "city": "Windsor",
    "state": "CO",
    "region": "NE Colorado",
    "lat": 40.4775,
    "lng": -104.901,
    "railAccessible": true,
    "nearTransload": true,
    "contactName": "Grain Desk",
    "contactPhone": "(719) 195-3237",
    "website": "",
    "lastUpdated": "2026-02-18T19:06:52.184Z",
    "confidenceScore": 99,
    "verified": true,
    "cropType": "Yellow Corn",
    "organic": false,
    "railConfidence": 99
  },
  {
    "id": "dir-0096",
    "name": "Yuma Ethanol",
    "type": "ethanol",
    "cashPrice": 4.35,
    "basis": -0.13,
    "freightCost": 0,
    "netPrice": 0,
    "city": "Yuma",
    "state": "CO",
    "region": "NE Colorado",
    "lat": 40.1222,
    "lng": -102.713,
    "railAccessible": false,
    "nearTransload": false,
    "contactName": "Grain Desk",
    "contactPhone": "(719) 140-9241",
    "website": "",
    "lastUpdated": "2026-02-18T19:06:52.184Z",
    "confidenceScore": 57,
    "verified": false,
    "cropType": "Yellow Corn",
    "organic": false,
    "railConfidence": 56
  },
  {
    "id": "dir-0097",
    "name": "Five Rivers Cattle Feeding",
    "type": "feedlot",
    "cashPrice": 4.32,
    "basis": -0.16,
    "freightCost": 0,
    "netPrice": 0,
    "city": "Yuma",
    "state": "CO",
    "region": "NE Colorado",
    "lat": 40.1222,
    "lng": -102.713,
    "railAccessible": false,
    "nearTransload": false,
    "contactName": "Grain Desk",
    "contactPhone": "(719) 535-3043",
    "website": "",
    "lastUpdated": "2026-02-18T19:06:52.184Z",
    "confidenceScore": 62,
    "verified": false,
    "cropType": "Yellow Corn",
    "organic": false,
    "railConfidence": 56
  },
  {
    "id": "dir-0098",
    "name": "JBS Greeley",
    "type": "feedlot",
    "cashPrice": 4.32,
    "basis": -0.16,
    "freightCost": 0,
    "netPrice": 0,
    "city": "Greeley",
    "state": "CO",
    "region": "NE Colorado",
    "lat": 40.4233,
    "lng": -104.709,
    "railAccessible": true,
    "nearTransload": false,
    "contactName": "Grain Desk",
    "contactPhone": "(303) 926-8486",
    "website": "",
    "lastUpdated": "2026-02-18T19:06:52.184Z",
    "confidenceScore": 91,
    "verified": true,
    "cropType": "Yellow Corn",
    "organic": false,
    "railConfidence": 87
  },
  {
    "id": "dir-0099",
    "name": "Scoular Denver",
    "type": "elevator",
    "cashPrice": 4.39,
    "basis": -0.09,
    "freightCost": 0,
    "netPrice": 0,
    "city": "Denver",
    "state": "CO",
    "region": "Front Range",
    "lat": 39.7392,
    "lng": -104.99,
    "railAccessible": true,
    "nearTransload": true,
    "contactName": "Grain Desk",
    "contactPhone": "(719) 537-1911",
    "website": "https://www.scoular.com",
    "lastUpdated": "2026-02-18T19:06:52.184Z",
    "confidenceScore": 99,
    "verified": true,
    "cropType": "Yellow Corn",
    "organic": false,
    "railConfidence": 100
  },
  {
    "id": "dir-0100",
    "name": "CHS Glasgow",
    "type": "elevator",
    "cashPrice": 3.96,
    "basis": -0.52,
    "freightCost": 0,
    "netPrice": 0,
    "city": "Glasgow",
    "state": "MT",
    "region": "NE Montana",
    "lat": 48.1969,
    "lng": -106.635,
    "railAccessible": false,
    "nearTransload": false,
    "contactName": "Grain Desk",
    "contactPhone": "(406) 267-1820",
    "website": "https://www.chsinc.com",
    "lastUpdated": "2026-02-18T19:06:52.184Z",
    "confidenceScore": 50,
    "verified": false,
    "cropType": "Yellow Corn",
    "organic": false,
    "railConfidence": 10
  },
  {
    "id": "dir-0101",
    "name": "Columbia Grain Havre",
    "type": "elevator",
    "cashPrice": 3.95,
    "basis": -0.53,
    "freightCost": 0,
    "netPrice": 0,
    "city": "Havre",
    "state": "MT",
    "region": "North Central MT",
    "lat": 48.55,
    "lng": -109.67,
    "railAccessible": false,
    "nearTransload": false,
    "contactName": "Grain Desk",
    "contactPhone": "(406) 665-6277",
    "website": "",
    "lastUpdated": "2026-02-18T19:06:52.184Z",
    "confidenceScore": 50,
    "verified": false,
    "cropType": "Yellow Corn",
    "organic": false,
    "railConfidence": 0
  },
  {
    "id": "dir-0102",
    "name": "General Mills Great Falls",
    "type": "processor",
    "cashPrice": 3.96,
    "basis": -0.52,
    "freightCost": 0,
    "netPrice": 0,
    "city": "Great Falls",
    "state": "MT",
    "region": "Central MT",
    "lat": 47.5064,
    "lng": -111.3,
    "railAccessible": false,
    "nearTransload": false,
    "contactName": "Grain Desk",
    "contactPhone": "(406) 182-7043",
    "website": "",
    "lastUpdated": "2026-02-18T19:06:52.184Z",
    "confidenceScore": 50,
    "verified": false,
    "cropType": "Wheat",
    "organic": false,
    "railConfidence": 28
  },
  {
    "id": "dir-0103",
    "name": "Montana Flour & Grains",
    "type": "processor",
    "cashPrice": 4,
    "basis": -0.48,
    "freightCost": 0,
    "netPrice": 0,
    "city": "Fort Benton",
    "state": "MT",
    "region": "Central MT",
    "lat": 47.819,
    "lng": -110.666,
    "railAccessible": false,
    "nearTransload": false,
    "contactName": "Grain Desk",
    "contactPhone": "(406) 806-4687",
    "website": "",
    "lastUpdated": "2026-02-18T19:06:52.184Z",
    "confidenceScore": 50,
    "verified": false,
    "cropType": "Wheat",
    "organic": false,
    "railConfidence": 11
  },
  {
    "id": "dir-0104",
    "name": "Gavilon Billings",
    "type": "elevator",
    "cashPrice": 4.01,
    "basis": -0.47,
    "freightCost": 0,
    "netPrice": 0,
    "city": "Billings",
    "state": "MT",
    "region": "South Central MT",
    "lat": 45.7833,
    "lng": -108.5,
    "railAccessible": true,
    "nearTransload": true,
    "contactName": "Grain Desk",
    "contactPhone": "(406) 353-4716",
    "website": "",
    "lastUpdated": "2026-02-18T19:06:52.184Z",
    "confidenceScore": 99,
    "verified": true,
    "cropType": "Yellow Corn",
    "organic": false,
    "railConfidence": 100
  },
  {
    "id": "dir-0105",
    "name": "United Grain Shelby",
    "type": "elevator",
    "cashPrice": 3.9,
    "basis": -0.58,
    "freightCost": 0,
    "netPrice": 0,
    "city": "Shelby",
    "state": "MT",
    "region": "NW Montana",
    "lat": 48.505,
    "lng": -111.857,
    "railAccessible": false,
    "nearTransload": false,
    "contactName": "Grain Desk",
    "contactPhone": "(406) 190-7619",
    "website": "",
    "lastUpdated": "2026-02-18T19:06:52.184Z",
    "confidenceScore": 50,
    "verified": false,
    "cropType": "Wheat",
    "organic": false,
    "railConfidence": 0
  },
  {
    "id": "dir-0106",
    "name": "Columbia Grain Pasco",
    "type": "export",
    "cashPrice": 4.6,
    "basis": 0.12,
    "freightCost": 0,
    "netPrice": 0,
    "city": "Pasco",
    "state": "WA",
    "region": "Columbia Basin",
    "lat": 46.2396,
    "lng": -119.1,
    "railAccessible": true,
    "nearTransload": true,
    "contactName": "Grain Desk",
    "contactPhone": "(360) 584-5246",
    "website": "",
    "lastUpdated": "2026-02-18T19:06:52.184Z",
    "confidenceScore": 99,
    "verified": true,
    "cropType": "Yellow Corn",
    "organic": false,
    "railConfidence": 100
  },
  {
    "id": "dir-0107",
    "name": "United Grain Corp Warden",
    "type": "elevator",
    "cashPrice": 4.66,
    "basis": 0.18,
    "freightCost": 0,
    "netPrice": 0,
    "city": "Warden",
    "state": "WA",
    "region": "Columbia Basin",
    "lat": 46.9678,
    "lng": -119.042,
    "railAccessible": false,
    "nearTransload": false,
    "contactName": "Grain Desk",
    "contactPhone": "(206) 921-2535",
    "website": "https://www.ugc.com",
    "lastUpdated": "2026-02-18T19:06:52.184Z",
    "confidenceScore": 60,
    "verified": false,
    "cropType": "Yellow Corn",
    "organic": false,
    "railConfidence": 57
  },
  {
    "id": "dir-0108",
    "name": "Yakima Valley Grain",
    "type": "elevator",
    "cashPrice": 4.58,
    "basis": 0.1,
    "freightCost": 0,
    "netPrice": 0,
    "city": "Yakima",
    "state": "WA",
    "region": "Yakima Valley",
    "lat": 46.6021,
    "lng": -120.505,
    "railAccessible": false,
    "nearTransload": false,
    "contactName": "Grain Desk",
    "contactPhone": "(253) 211-3570",
    "website": "",
    "lastUpdated": "2026-02-18T19:06:52.184Z",
    "confidenceScore": 51,
    "verified": false,
    "cropType": "Yellow Corn",
    "organic": false,
    "railConfidence": 49
  },
  {
    "id": "dir-0109",
    "name": "CHS Connell",
    "type": "elevator",
    "cashPrice": 4.65,
    "basis": 0.17,
    "freightCost": 0,
    "netPrice": 0,
    "city": "Connell",
    "state": "WA",
    "region": "Columbia Basin",
    "lat": 46.662,
    "lng": -118.861,
    "railAccessible": true,
    "nearTransload": false,
    "contactName": "Grain Desk",
    "contactPhone": "(206) 627-3603",
    "website": "https://www.chsinc.com",
    "lastUpdated": "2026-02-18T19:06:52.184Z",
    "confidenceScore": 95,
    "verified": true,
    "cropType": "Yellow Corn",
    "organic": false,
    "railConfidence": 87
  },
  {
    "id": "dir-0110",
    "name": "Northwest Grain Growers",
    "type": "elevator",
    "cashPrice": 4.55,
    "basis": 0.07,
    "freightCost": 0,
    "netPrice": 0,
    "city": "Walla Walla",
    "state": "WA",
    "region": "SE Washington",
    "lat": 46.0646,
    "lng": -118.343,
    "railAccessible": false,
    "nearTransload": false,
    "contactName": "Grain Desk",
    "contactPhone": "(253) 394-7145",
    "website": "",
    "lastUpdated": "2026-02-18T19:06:52.184Z",
    "confidenceScore": 52,
    "verified": false,
    "cropType": "Yellow Corn",
    "organic": false,
    "railConfidence": 51
  },
  {
    "id": "dir-0111",
    "name": "Louis Dreyfus Portland",
    "type": "export",
    "cashPrice": 4.79,
    "basis": 0.31,
    "freightCost": 0,
    "netPrice": 0,
    "city": "Portland",
    "state": "WA",
    "region": "PNW Export",
    "lat": 45.6387,
    "lng": -122.675,
    "railAccessible": true,
    "nearTransload": true,
    "contactName": "Grain Desk",
    "contactPhone": "(509) 308-5181",
    "website": "",
    "lastUpdated": "2026-02-18T19:06:52.184Z",
    "confidenceScore": 99,
    "verified": true,
    "cropType": "Yellow Corn",
    "organic": false,
    "railConfidence": 100
  },
  {
    "id": "dir-0112",
    "name": "Columbia Grain Portland",
    "type": "export",
    "cashPrice": 4.76,
    "basis": 0.28,
    "freightCost": 0,
    "netPrice": 0,
    "city": "Portland",
    "state": "OR",
    "region": "PNW Export",
    "lat": 45.5152,
    "lng": -122.676,
    "railAccessible": true,
    "nearTransload": false,
    "contactName": "Grain Desk",
    "contactPhone": "(541) 809-2581",
    "website": "",
    "lastUpdated": "2026-02-18T19:06:52.184Z",
    "confidenceScore": 89,
    "verified": true,
    "cropType": "Yellow Corn",
    "organic": false,
    "railConfidence": 89
  },
  {
    "id": "dir-0113",
    "name": "Pendleton Grain Growers",
    "type": "elevator",
    "cashPrice": 4.54,
    "basis": 0.06,
    "freightCost": 0,
    "netPrice": 0,
    "city": "Pendleton",
    "state": "OR",
    "region": "Eastern OR",
    "lat": 45.6721,
    "lng": -118.788,
    "railAccessible": false,
    "nearTransload": false,
    "contactName": "Grain Desk",
    "contactPhone": "(503) 670-7655",
    "website": "",
    "lastUpdated": "2026-02-18T19:06:52.184Z",
    "confidenceScore": 50,
    "verified": false,
    "cropType": "Wheat",
    "organic": false,
    "railConfidence": 47
  },
  {
    "id": "dir-0114",
    "name": "Amalgamated Sugar",
    "type": "processor",
    "cashPrice": 4.28,
    "basis": -0.2,
    "freightCost": 0,
    "netPrice": 0,
    "city": "Twin Falls",
    "state": "ID",
    "region": "Southern ID",
    "lat": 42.5529,
    "lng": -114.461,
    "railAccessible": false,
    "nearTransload": false,
    "contactName": "Grain Desk",
    "contactPhone": "(208) 958-5526",
    "website": "",
    "lastUpdated": "2026-02-18T19:06:52.184Z",
    "confidenceScore": 50,
    "verified": false,
    "cropType": "Yellow Corn",
    "organic": false,
    "railConfidence": 0
  },
  {
    "id": "dir-0115",
    "name": "Blue Bunny Dairy / Wells",
    "type": "processor",
    "cashPrice": 4.33,
    "basis": -0.15,
    "freightCost": 0,
    "netPrice": 0,
    "city": "Boise",
    "state": "ID",
    "region": "SW Idaho",
    "lat": 43.615,
    "lng": -116.202,
    "railAccessible": false,
    "nearTransload": false,
    "contactName": "Grain Desk",
    "contactPhone": "(208) 591-7658",
    "website": "",
    "lastUpdated": "2026-02-18T19:06:52.184Z",
    "confidenceScore": 50,
    "verified": false,
    "cropType": "Yellow Corn",
    "organic": false,
    "railConfidence": 0
  },
  {
    "id": "dir-0116",
    "name": "Idaho Pacific Corp",
    "type": "processor",
    "cashPrice": 4.25,
    "basis": -0.23,
    "freightCost": 0,
    "netPrice": 0,
    "city": "Ririe",
    "state": "ID",
    "region": "Eastern ID",
    "lat": 43.6272,
    "lng": -111.771,
    "railAccessible": false,
    "nearTransload": false,
    "contactName": "Grain Desk",
    "contactPhone": "(208) 794-1348",
    "website": "",
    "lastUpdated": "2026-02-18T19:06:52.184Z",
    "confidenceScore": 50,
    "verified": false,
    "cropType": "Yellow Corn",
    "organic": false,
    "railConfidence": 0
  },
  {
    "id": "dir-0117",
    "name": "Snake River Grain",
    "type": "elevator",
    "cashPrice": 4.26,
    "basis": -0.22,
    "freightCost": 0,
    "netPrice": 0,
    "city": "Burley",
    "state": "ID",
    "region": "Southern ID",
    "lat": 42.5358,
    "lng": -113.793,
    "railAccessible": false,
    "nearTransload": false,
    "contactName": "Grain Desk",
    "contactPhone": "(208) 993-4354",
    "website": "",
    "lastUpdated": "2026-02-18T19:06:52.184Z",
    "confidenceScore": 50,
    "verified": false,
    "cropType": "Yellow Corn",
    "organic": false,
    "railConfidence": 0
  },
  {
    "id": "dir-0118",
    "name": "Modesto Milling",
    "type": "elevator",
    "cashPrice": 5.35,
    "basis": 0.87,
    "freightCost": 0,
    "netPrice": 0,
    "city": "Modesto",
    "state": "CA",
    "region": "Central Valley",
    "lat": 37.6064,
    "lng": -120.999,
    "railAccessible": true,
    "nearTransload": true,
    "contactName": "Grain Desk",
    "contactPhone": "(209) 523-9167",
    "website": "https://modestomilling.com",
    "lastUpdated": "2026-02-18T19:06:52.184Z",
    "confidenceScore": 99,
    "verified": true,
    "cropType": "Yellow Corn",
    "organic": true,
    "railConfidence": 98
  },
  {
    "id": "dir-0119",
    "name": "A.L. Gilbert Company",
    "type": "processor",
    "cashPrice": 5.33,
    "basis": 0.85,
    "freightCost": 0,
    "netPrice": 0,
    "city": "Oakdale",
    "state": "CA",
    "region": "Central Valley",
    "lat": 37.7683,
    "lng": -120.847,
    "railAccessible": true,
    "nearTransload": false,
    "contactName": "Grain Desk",
    "contactPhone": "(209) 847-1721",
    "website": "https://algilbert.com",
    "lastUpdated": "2026-02-18T19:06:52.184Z",
    "confidenceScore": 87,
    "verified": true,
    "cropType": "Yellow Corn",
    "organic": false,
    "railConfidence": 84
  },
  {
    "id": "dir-0120",
    "name": "Penny Newman Grain",
    "type": "processor",
    "cashPrice": 5.37,
    "basis": 0.89,
    "freightCost": 0,
    "netPrice": 0,
    "city": "Fresno",
    "state": "CA",
    "region": "Central Valley",
    "lat": 36.7378,
    "lng": -119.787,
    "railAccessible": true,
    "nearTransload": true,
    "contactName": "Grain Desk",
    "contactPhone": "(661) 281-5660",
    "website": "https://www.pennynewman.com",
    "lastUpdated": "2026-02-18T19:06:52.184Z",
    "confidenceScore": 99,
    "verified": true,
    "cropType": "Yellow Corn",
    "organic": false,
    "railConfidence": 100
  },
  {
    "id": "dir-0121",
    "name": "Foster Farms Livingston",
    "type": "feedlot",
    "cashPrice": 5.37,
    "basis": 0.89,
    "freightCost": 0,
    "netPrice": 0,
    "city": "Livingston",
    "state": "CA",
    "region": "Central Valley",
    "lat": 37.3867,
    "lng": -120.721,
    "railAccessible": true,
    "nearTransload": true,
    "contactName": "Grain Desk",
    "contactPhone": "(209) 153-2511",
    "website": "https://fosterfarms.com",
    "lastUpdated": "2026-02-18T19:06:52.184Z",
    "confidenceScore": 99,
    "verified": true,
    "cropType": "Yellow Corn",
    "organic": false,
    "railConfidence": 98
  },
  {
    "id": "dir-0122",
    "name": "JD Heiskell Modesto",
    "type": "processor",
    "cashPrice": 5.38,
    "basis": 0.9,
    "freightCost": 0,
    "netPrice": 0,
    "city": "Modesto",
    "state": "CA",
    "region": "Central Valley",
    "lat": 37.64,
    "lng": -120.996,
    "railAccessible": true,
    "nearTransload": true,
    "contactName": "Grain Desk",
    "contactPhone": "(661) 108-8705",
    "website": "https://www.heiskell.com",
    "lastUpdated": "2026-02-18T19:06:52.184Z",
    "confidenceScore": 99,
    "verified": true,
    "cropType": "Yellow Corn",
    "organic": false,
    "railConfidence": 100
  },
  {
    "id": "dir-0123",
    "name": "Stanislaus Feed Turlock",
    "type": "feedlot",
    "cashPrice": 5.34,
    "basis": 0.86,
    "freightCost": 0,
    "netPrice": 0,
    "city": "Turlock",
    "state": "CA",
    "region": "Central Valley",
    "lat": 37.4947,
    "lng": -120.846,
    "railAccessible": true,
    "nearTransload": true,
    "contactName": "Grain Desk",
    "contactPhone": "(661) 694-1507",
    "website": "",
    "lastUpdated": "2026-02-18T19:06:52.184Z",
    "confidenceScore": 98,
    "verified": true,
    "cropType": "Yellow Corn",
    "organic": false,
    "railConfidence": 98
  },
  {
    "id": "dir-0124",
    "name": "Pacific Grain & Foods",
    "type": "processor",
    "cashPrice": 5.36,
    "basis": 0.88,
    "freightCost": 0,
    "netPrice": 0,
    "city": "Fresno",
    "state": "CA",
    "region": "Central Valley",
    "lat": 36.75,
    "lng": -119.77,
    "railAccessible": true,
    "nearTransload": true,
    "contactName": "Grain Desk",
    "contactPhone": "(661) 181-4950",
    "website": "",
    "lastUpdated": "2026-02-18T19:06:52.184Z",
    "confidenceScore": 99,
    "verified": true,
    "cropType": "Yellow Corn",
    "organic": false,
    "railConfidence": 99
  },
  {
    "id": "dir-0125",
    "name": "Producers Dairy Fresno",
    "type": "processor",
    "cashPrice": 5.39,
    "basis": 0.91,
    "freightCost": 0,
    "netPrice": 0,
    "city": "Fresno",
    "state": "CA",
    "region": "Central Valley",
    "lat": 36.75,
    "lng": -119.81,
    "railAccessible": true,
    "nearTransload": true,
    "contactName": "Grain Desk",
    "contactPhone": "(661) 357-8263",
    "website": "",
    "lastUpdated": "2026-02-18T19:06:52.184Z",
    "confidenceScore": 99,
    "verified": true,
    "cropType": "Yellow Corn",
    "organic": false,
    "railConfidence": 100
  },
  {
    "id": "dir-0126",
    "name": "Harris Feeding Co",
    "type": "feedlot",
    "cashPrice": 5.36,
    "basis": 0.88,
    "freightCost": 0,
    "netPrice": 0,
    "city": "Coalinga",
    "state": "CA",
    "region": "Central Valley",
    "lat": 36.1397,
    "lng": -120.36,
    "railAccessible": false,
    "nearTransload": false,
    "contactName": "Grain Desk",
    "contactPhone": "(209) 595-5250",
    "website": "",
    "lastUpdated": "2026-02-18T19:06:52.184Z",
    "confidenceScore": 50,
    "verified": false,
    "cropType": "Yellow Corn",
    "organic": false,
    "railConfidence": 42
  },
  {
    "id": "dir-0127",
    "name": "Zacky Farms",
    "type": "feedlot",
    "cashPrice": 5.37,
    "basis": 0.89,
    "freightCost": 0,
    "netPrice": 0,
    "city": "Stockton",
    "state": "CA",
    "region": "Central Valley",
    "lat": 37.9577,
    "lng": -121.29,
    "railAccessible": true,
    "nearTransload": true,
    "contactName": "Grain Desk",
    "contactPhone": "(661) 616-1958",
    "website": "",
    "lastUpdated": "2026-02-18T19:06:52.184Z",
    "confidenceScore": 99,
    "verified": true,
    "cropType": "Yellow Corn",
    "organic": false,
    "railConfidence": 100
  },
  {
    "id": "dir-0128",
    "name": "POET Biorefining Guymon",
    "type": "ethanol",
    "cashPrice": 4.36,
    "basis": -0.12,
    "freightCost": 0,
    "netPrice": 0,
    "city": "Guymon",
    "state": "OK",
    "region": "Oklahoma Panhandle",
    "lat": 36.6889,
    "lng": -101.481,
    "railAccessible": false,
    "nearTransload": false,
    "contactName": "Grain Desk",
    "contactPhone": "(580) 163-4940",
    "website": "https://poet.com",
    "lastUpdated": "2026-02-18T19:06:52.184Z",
    "confidenceScore": 50,
    "verified": false,
    "cropType": "Yellow Corn",
    "organic": false,
    "railConfidence": 24
  },
  {
    "id": "dir-0129",
    "name": "Seaboard Farms",
    "type": "feedlot",
    "cashPrice": 4.41,
    "basis": -0.07,
    "freightCost": 0,
    "netPrice": 0,
    "city": "Guymon",
    "state": "OK",
    "region": "Oklahoma Panhandle",
    "lat": 36.6889,
    "lng": -101.481,
    "railAccessible": false,
    "nearTransload": false,
    "contactName": "Grain Desk",
    "contactPhone": "(580) 441-8782",
    "website": "",
    "lastUpdated": "2026-02-18T19:06:52.184Z",
    "confidenceScore": 50,
    "verified": false,
    "cropType": "Yellow Corn",
    "organic": false,
    "railConfidence": 24
  },
  {
    "id": "dir-0130",
    "name": "Gavilon Enid",
    "type": "elevator",
    "cashPrice": 4.31,
    "basis": -0.17,
    "freightCost": 0,
    "netPrice": 0,
    "city": "Enid",
    "state": "OK",
    "region": "North Central OK",
    "lat": 36.3956,
    "lng": -97.8783,
    "railAccessible": false,
    "nearTransload": false,
    "contactName": "Grain Desk",
    "contactPhone": "(580) 568-2790",
    "website": "",
    "lastUpdated": "2026-02-18T19:06:52.184Z",
    "confidenceScore": 50,
    "verified": false,
    "cropType": "Yellow Corn",
    "organic": false,
    "railConfidence": 39
  },
  {
    "id": "dir-0131",
    "name": "The Andersons Enid",
    "type": "elevator",
    "cashPrice": 4.34,
    "basis": -0.14,
    "freightCost": 0,
    "netPrice": 0,
    "city": "Enid",
    "state": "OK",
    "region": "North Central OK",
    "lat": 36.3956,
    "lng": -97.8783,
    "railAccessible": false,
    "nearTransload": false,
    "contactName": "Grain Desk",
    "contactPhone": "(580) 871-2332",
    "website": "https://www.theandersons.com",
    "lastUpdated": "2026-02-18T19:06:52.184Z",
    "confidenceScore": 50,
    "verified": false,
    "cropType": "Yellow Corn",
    "organic": false,
    "railConfidence": 39
  },
  {
    "id": "dir-0132",
    "name": "Tulsa Port Terminal",
    "type": "river",
    "cashPrice": 4.35,
    "basis": -0.13,
    "freightCost": 0,
    "netPrice": 0,
    "city": "Tulsa",
    "state": "OK",
    "region": "NE Oklahoma",
    "lat": 36.154,
    "lng": -95.9928,
    "railAccessible": true,
    "nearTransload": true,
    "contactName": "Grain Desk",
    "contactPhone": "(580) 793-5768",
    "website": "",
    "lastUpdated": "2026-02-18T19:06:52.184Z",
    "confidenceScore": 99,
    "verified": true,
    "cropType": "Yellow Corn",
    "organic": false,
    "railConfidence": 100
  },
  {
    "id": "dir-0133",
    "name": "POET Biorefining Macon",
    "type": "ethanol",
    "cashPrice": 4.32,
    "basis": -0.16,
    "freightCost": 0,
    "netPrice": 0,
    "city": "Macon",
    "state": "MO",
    "region": "NE Missouri",
    "lat": 39.7425,
    "lng": -92.4727,
    "railAccessible": true,
    "nearTransload": false,
    "contactName": "Grain Desk",
    "contactPhone": "(314) 926-6441",
    "website": "https://poet.com",
    "lastUpdated": "2026-02-18T19:06:52.184Z",
    "confidenceScore": 77,
    "verified": false,
    "cropType": "Yellow Corn",
    "organic": false,
    "railConfidence": 69
  },
  {
    "id": "dir-0134",
    "name": "ADM St. Louis",
    "type": "export",
    "cashPrice": 4.4,
    "basis": -0.08,
    "freightCost": 0,
    "netPrice": 0,
    "city": "St. Louis",
    "state": "MO",
    "region": "Metro East",
    "lat": 38.627,
    "lng": -90.1994,
    "railAccessible": true,
    "nearTransload": true,
    "contactName": "Grain Desk",
    "contactPhone": "(816) 790-6201",
    "website": "https://www.adm.com",
    "lastUpdated": "2026-02-18T19:06:52.184Z",
    "confidenceScore": 99,
    "verified": true,
    "cropType": "Yellow Corn",
    "organic": false,
    "railConfidence": 100
  },
  {
    "id": "dir-0135",
    "name": "Bunge St. Louis",
    "type": "export",
    "cashPrice": 4.39,
    "basis": -0.09,
    "freightCost": 0,
    "netPrice": 0,
    "city": "St. Louis",
    "state": "MO",
    "region": "Metro East",
    "lat": 38.627,
    "lng": -90.1994,
    "railAccessible": true,
    "nearTransload": true,
    "contactName": "Grain Desk",
    "contactPhone": "(816) 405-3233",
    "website": "https://www.bunge.com",
    "lastUpdated": "2026-02-18T19:06:52.184Z",
    "confidenceScore": 99,
    "verified": true,
    "cropType": "Yellow Corn",
    "organic": false,
    "railConfidence": 100
  },
  {
    "id": "dir-0136",
    "name": "MFA Incorporated",
    "type": "elevator",
    "cashPrice": 4.31,
    "basis": -0.17,
    "freightCost": 0,
    "netPrice": 0,
    "city": "Columbia",
    "state": "MO",
    "region": "Central MO",
    "lat": 38.9517,
    "lng": -92.3341,
    "railAccessible": false,
    "nearTransload": false,
    "contactName": "Grain Desk",
    "contactPhone": "(573) 618-9964",
    "website": "",
    "lastUpdated": "2026-02-18T19:06:52.184Z",
    "confidenceScore": 50,
    "verified": false,
    "cropType": "Yellow Corn",
    "organic": false,
    "railConfidence": 27
  },
  {
    "id": "dir-0137",
    "name": "Bartlett Grain Kansas City MO",
    "type": "elevator",
    "cashPrice": 4.38,
    "basis": -0.1,
    "freightCost": 0,
    "netPrice": 0,
    "city": "Kansas City",
    "state": "MO",
    "region": "Western MO",
    "lat": 39.0997,
    "lng": -94.5786,
    "railAccessible": true,
    "nearTransload": true,
    "contactName": "Grain Desk",
    "contactPhone": "(816) 822-1920",
    "website": "",
    "lastUpdated": "2026-02-18T19:06:52.184Z",
    "confidenceScore": 99,
    "verified": true,
    "cropType": "Yellow Corn",
    "organic": false,
    "railConfidence": 100
  },
  {
    "id": "dir-0138",
    "name": "ADM Decatur",
    "type": "processor",
    "cashPrice": 4.37,
    "basis": -0.11,
    "freightCost": 0,
    "netPrice": 0,
    "city": "Decatur",
    "state": "IL",
    "region": "Central IL",
    "lat": 39.8403,
    "lng": -88.9548,
    "railAccessible": false,
    "nearTransload": false,
    "contactName": "Grain Desk",
    "contactPhone": "(618) 866-7799",
    "website": "https://www.adm.com",
    "lastUpdated": "2026-02-18T19:06:52.184Z",
    "confidenceScore": 50,
    "verified": false,
    "cropType": "Yellow Corn",
    "organic": false,
    "railConfidence": 11
  },
  {
    "id": "dir-0139",
    "name": "Marquis Energy Hennepin",
    "type": "ethanol",
    "cashPrice": 4.38,
    "basis": -0.1,
    "freightCost": 0,
    "netPrice": 0,
    "city": "Hennepin",
    "state": "IL",
    "region": "North Central IL",
    "lat": 41.25,
    "lng": -89.34,
    "railAccessible": true,
    "nearTransload": true,
    "contactName": "Grain Desk",
    "contactPhone": "(312) 778-9676",
    "website": "",
    "lastUpdated": "2026-02-18T19:06:52.184Z",
    "confidenceScore": 99,
    "verified": true,
    "cropType": "Yellow Corn",
    "organic": false,
    "railConfidence": 92
  },
  {
    "id": "dir-0140",
    "name": "Aventine Renewable Energy",
    "type": "ethanol",
    "cashPrice": 4.36,
    "basis": -0.12,
    "freightCost": 0,
    "netPrice": 0,
    "city": "Pekin",
    "state": "IL",
    "region": "Central IL",
    "lat": 40.5675,
    "lng": -89.6245,
    "railAccessible": false,
    "nearTransload": false,
    "contactName": "Grain Desk",
    "contactPhone": "(815) 993-7565",
    "website": "",
    "lastUpdated": "2026-02-18T19:06:52.184Z",
    "confidenceScore": 53,
    "verified": false,
    "cropType": "Yellow Corn",
    "organic": false,
    "railConfidence": 44
  },
  {
    "id": "dir-0141",
    "name": "Cargill Bloomington",
    "type": "processor",
    "cashPrice": 4.41,
    "basis": -0.07,
    "freightCost": 0,
    "netPrice": 0,
    "city": "Bloomington",
    "state": "IL",
    "region": "Central IL",
    "lat": 40.4842,
    "lng": -88.9937,
    "railAccessible": false,
    "nearTransload": false,
    "contactName": "Grain Desk",
    "contactPhone": "(217) 920-2467",
    "website": "https://www.cargill.com/agriculture",
    "lastUpdated": "2026-02-18T19:06:52.184Z",
    "confidenceScore": 50,
    "verified": false,
    "cropType": "Yellow Corn",
    "organic": false,
    "railConfidence": 33
  },
  {
    "id": "dir-0142",
    "name": "Bunge Danville",
    "type": "crush",
    "cashPrice": 4.41,
    "basis": -0.07,
    "freightCost": 0,
    "netPrice": 0,
    "city": "Danville",
    "state": "IL",
    "region": "Eastern IL",
    "lat": 40.1245,
    "lng": -87.63,
    "railAccessible": false,
    "nearTransload": false,
    "contactName": "Grain Desk",
    "contactPhone": "(312) 687-1687",
    "website": "https://www.bunge.com",
    "lastUpdated": "2026-02-18T19:06:52.184Z",
    "confidenceScore": 50,
    "verified": false,
    "cropType": "Soybeans",
    "organic": false,
    "railConfidence": 8
  },
  {
    "id": "dir-0143",
    "name": "The Andersons Champaign",
    "type": "elevator",
    "cashPrice": 4.36,
    "basis": -0.12,
    "freightCost": 0,
    "netPrice": 0,
    "city": "Champaign",
    "state": "IL",
    "region": "Central IL",
    "lat": 40.1164,
    "lng": -88.2434,
    "railAccessible": false,
    "nearTransload": false,
    "contactName": "Grain Desk",
    "contactPhone": "(815) 172-7368",
    "website": "https://www.theandersons.com",
    "lastUpdated": "2026-02-18T19:06:52.184Z",
    "confidenceScore": 50,
    "verified": false,
    "cropType": "Yellow Corn",
    "organic": false,
    "railConfidence": 13
  },
  {
    "id": "dir-0144",
    "name": "Consolidated Grain Peoria",
    "type": "elevator",
    "cashPrice": 4.38,
    "basis": -0.1,
    "freightCost": 0,
    "netPrice": 0,
    "city": "Peoria",
    "state": "IL",
    "region": "Central IL",
    "lat": 40.6936,
    "lng": -89.589,
    "railAccessible": false,
    "nearTransload": false,
    "contactName": "Grain Desk",
    "contactPhone": "(217) 613-9081",
    "website": "",
    "lastUpdated": "2026-02-18T19:06:52.184Z",
    "confidenceScore": 52,
    "verified": false,
    "cropType": "Yellow Corn",
    "organic": false,
    "railConfidence": 52
  },
  {
    "id": "dir-0145",
    "name": "Tate & Lyle Decatur",
    "type": "processor",
    "cashPrice": 4.38,
    "basis": -0.1,
    "freightCost": 0,
    "netPrice": 0,
    "city": "Decatur",
    "state": "IL",
    "region": "Central IL",
    "lat": 39.8403,
    "lng": -88.9548,
    "railAccessible": false,
    "nearTransload": false,
    "contactName": "Grain Desk",
    "contactPhone": "(618) 960-1227",
    "website": "",
    "lastUpdated": "2026-02-18T19:06:52.184Z",
    "confidenceScore": 50,
    "verified": false,
    "cropType": "Yellow Corn",
    "organic": false,
    "railConfidence": 11
  },
  {
    "id": "dir-0146",
    "name": "Didion Milling",
    "type": "processor",
    "cashPrice": 4.35,
    "basis": -0.13,
    "freightCost": 0,
    "netPrice": 0,
    "city": "Cambria",
    "state": "WI",
    "region": "Central WI",
    "lat": 43.5444,
    "lng": -89.0965,
    "railAccessible": false,
    "nearTransload": false,
    "contactName": "Grain Desk",
    "contactPhone": "(715) 594-2492",
    "website": "",
    "lastUpdated": "2026-02-18T19:06:52.184Z",
    "confidenceScore": 50,
    "verified": false,
    "cropType": "Yellow Corn",
    "organic": false,
    "railConfidence": 38
  },
  {
    "id": "dir-0147",
    "name": "United Cooperative",
    "type": "elevator",
    "cashPrice": 4.37,
    "basis": -0.11,
    "freightCost": 0,
    "netPrice": 0,
    "city": "Beaver Dam",
    "state": "WI",
    "region": "SE Wisconsin",
    "lat": 43.4578,
    "lng": -88.8373,
    "railAccessible": false,
    "nearTransload": false,
    "contactName": "Grain Desk",
    "contactPhone": "(414) 156-3449",
    "website": "",
    "lastUpdated": "2026-02-18T19:06:52.184Z",
    "confidenceScore": 50,
    "verified": false,
    "cropType": "Yellow Corn",
    "organic": false,
    "railConfidence": 37
  },
  {
    "id": "dir-0148",
    "name": "Badger State Ethanol",
    "type": "ethanol",
    "cashPrice": 4.33,
    "basis": -0.15,
    "freightCost": 0,
    "netPrice": 0,
    "city": "Monroe",
    "state": "WI",
    "region": "South WI",
    "lat": 42.6011,
    "lng": -89.6384,
    "railAccessible": true,
    "nearTransload": false,
    "contactName": "Grain Desk",
    "contactPhone": "(608) 752-8628",
    "website": "",
    "lastUpdated": "2026-02-18T19:06:52.184Z",
    "confidenceScore": 73,
    "verified": true,
    "cropType": "Yellow Corn",
    "organic": false,
    "railConfidence": 73
  },
  {
    "id": "dir-0149",
    "name": "Ace Ethanol",
    "type": "ethanol",
    "cashPrice": 4.3,
    "basis": -0.18,
    "freightCost": 0,
    "netPrice": 0,
    "city": "Stanley",
    "state": "WI",
    "region": "West Central WI",
    "lat": 44.96,
    "lng": -90.9378,
    "railAccessible": false,
    "nearTransload": false,
    "contactName": "Grain Desk",
    "contactPhone": "(414) 214-7604",
    "website": "",
    "lastUpdated": "2026-02-18T19:06:52.184Z",
    "confidenceScore": 50,
    "verified": false,
    "cropType": "Yellow Corn",
    "organic": false,
    "railConfidence": 27
  },
  {
    "id": "dir-0150",
    "name": "POET Biorefining Portland",
    "type": "ethanol",
    "cashPrice": 4.38,
    "basis": -0.1,
    "freightCost": 0,
    "netPrice": 0,
    "city": "Portland",
    "state": "IN",
    "region": "Eastern IN",
    "lat": 40.4345,
    "lng": -84.9777,
    "railAccessible": false,
    "nearTransload": false,
    "contactName": "Grain Desk",
    "contactPhone": "(812) 652-8715",
    "website": "https://poet.com",
    "lastUpdated": "2026-02-18T19:06:52.184Z",
    "confidenceScore": 57,
    "verified": false,
    "cropType": "Yellow Corn",
    "organic": false,
    "railConfidence": 50
  },
  {
    "id": "dir-0151",
    "name": "Cardinal Ethanol",
    "type": "ethanol",
    "cashPrice": 4.36,
    "basis": -0.12,
    "freightCost": 0,
    "netPrice": 0,
    "city": "Union City",
    "state": "IN",
    "region": "Eastern IN",
    "lat": 40.2017,
    "lng": -84.8096,
    "railAccessible": false,
    "nearTransload": false,
    "contactName": "Grain Desk",
    "contactPhone": "(765) 763-4888",
    "website": "",
    "lastUpdated": "2026-02-18T19:06:52.184Z",
    "confidenceScore": 50,
    "verified": false,
    "cropType": "Yellow Corn",
    "organic": false,
    "railConfidence": 37
  },
  {
    "id": "dir-0152",
    "name": "Indiana Corn Processing",
    "type": "ethanol",
    "cashPrice": 4.38,
    "basis": -0.1,
    "freightCost": 0,
    "netPrice": 0,
    "city": "Marion",
    "state": "IN",
    "region": "Central IN",
    "lat": 40.5581,
    "lng": -85.6592,
    "railAccessible": false,
    "nearTransload": false,
    "contactName": "Grain Desk",
    "contactPhone": "(812) 155-5660",
    "website": "",
    "lastUpdated": "2026-02-18T19:06:52.184Z",
    "confidenceScore": 50,
    "verified": false,
    "cropType": "Yellow Corn",
    "organic": false,
    "railConfidence": 47
  },
  {
    "id": "dir-0153",
    "name": "Cargill Lafayette",
    "type": "processor",
    "cashPrice": 4.4,
    "basis": -0.08,
    "freightCost": 0,
    "netPrice": 0,
    "city": "Lafayette",
    "state": "IN",
    "region": "West Central IN",
    "lat": 40.4167,
    "lng": -86.8753,
    "railAccessible": false,
    "nearTransload": false,
    "contactName": "Grain Desk",
    "contactPhone": "(812) 371-4312",
    "website": "https://www.cargill.com/agriculture",
    "lastUpdated": "2026-02-18T19:06:52.184Z",
    "confidenceScore": 50,
    "verified": false,
    "cropType": "Yellow Corn",
    "organic": false,
    "railConfidence": 25
  },
  {
    "id": "dir-0154",
    "name": "Bunge Morristown",
    "type": "crush",
    "cashPrice": 4.38,
    "basis": -0.1,
    "freightCost": 0,
    "netPrice": 0,
    "city": "Morristown",
    "state": "IN",
    "region": "Central IN",
    "lat": 39.6717,
    "lng": -85.6994,
    "railAccessible": false,
    "nearTransload": false,
    "contactName": "Grain Desk",
    "contactPhone": "(574) 783-2965",
    "website": "https://www.bunge.com",
    "lastUpdated": "2026-02-18T19:06:52.184Z",
    "confidenceScore": 50,
    "verified": false,
    "cropType": "Soybeans",
    "organic": false,
    "railConfidence": 15
  },
  {
    "id": "dir-0155",
    "name": "POET Biorefining Marion",
    "type": "ethanol",
    "cashPrice": 4.38,
    "basis": -0.1,
    "freightCost": 0,
    "netPrice": 0,
    "city": "Marion",
    "state": "OH",
    "region": "Central OH",
    "lat": 40.5887,
    "lng": -83.1285,
    "railAccessible": true,
    "nearTransload": false,
    "contactName": "Grain Desk",
    "contactPhone": "(513) 192-1724",
    "website": "https://poet.com",
    "lastUpdated": "2026-02-18T19:06:52.184Z",
    "confidenceScore": 89,
    "verified": true,
    "cropType": "Yellow Corn",
    "organic": false,
    "railConfidence": 82
  },
  {
    "id": "dir-0156",
    "name": "The Andersons Maumee",
    "type": "elevator",
    "cashPrice": 4.41,
    "basis": -0.07,
    "freightCost": 0,
    "netPrice": 0,
    "city": "Maumee",
    "state": "OH",
    "region": "NW Ohio",
    "lat": 41.5628,
    "lng": -83.6538,
    "railAccessible": false,
    "nearTransload": false,
    "contactName": "Grain Desk",
    "contactPhone": "(614) 690-4800",
    "website": "https://www.theandersons.com",
    "lastUpdated": "2026-02-18T19:06:52.184Z",
    "confidenceScore": 50,
    "verified": false,
    "cropType": "Yellow Corn",
    "organic": false,
    "railConfidence": 40
  },
  {
    "id": "dir-0157",
    "name": "Cargill Sidney",
    "type": "processor",
    "cashPrice": 4.38,
    "basis": -0.1,
    "freightCost": 0,
    "netPrice": 0,
    "city": "Sidney",
    "state": "OH",
    "region": "Western OH",
    "lat": 40.2842,
    "lng": -84.1555,
    "railAccessible": false,
    "nearTransload": false,
    "contactName": "Grain Desk",
    "contactPhone": "(614) 182-9978",
    "website": "https://www.cargill.com/agriculture",
    "lastUpdated": "2026-02-18T19:06:52.184Z",
    "confidenceScore": 50,
    "verified": false,
    "cropType": "Yellow Corn",
    "organic": false,
    "railConfidence": 46
  },
  {
    "id": "dir-0158",
    "name": "Riceland Foods Stuttgart",
    "type": "processor",
    "cashPrice": 4.27,
    "basis": -0.21,
    "freightCost": 0,
    "netPrice": 0,
    "city": "Stuttgart",
    "state": "AR",
    "region": "East Central AR",
    "lat": 34.5003,
    "lng": -91.5526,
    "railAccessible": false,
    "nearTransload": false,
    "contactName": "Grain Desk",
    "contactPhone": "(870) 991-7821",
    "website": "",
    "lastUpdated": "2026-02-18T19:06:52.184Z",
    "confidenceScore": 50,
    "verified": false,
    "cropType": "Yellow Corn",
    "organic": false,
    "railConfidence": 16
  },
  {
    "id": "dir-0159",
    "name": "Producers Rice Mill",
    "type": "processor",
    "cashPrice": 4.3,
    "basis": -0.18,
    "freightCost": 0,
    "netPrice": 0,
    "city": "Stuttgart",
    "state": "AR",
    "region": "East Central AR",
    "lat": 34.5003,
    "lng": -91.5526,
    "railAccessible": false,
    "nearTransload": false,
    "contactName": "Grain Desk",
    "contactPhone": "(501) 969-3179",
    "website": "",
    "lastUpdated": "2026-02-18T19:06:52.184Z",
    "confidenceScore": 50,
    "verified": false,
    "cropType": "Yellow Corn",
    "organic": false,
    "railConfidence": 16
  },
  {
    "id": "dir-0160",
    "name": "CHS Torrington",
    "type": "elevator",
    "cashPrice": 4.14,
    "basis": -0.34,
    "freightCost": 0,
    "netPrice": 0,
    "city": "Torrington",
    "state": "WY",
    "region": "SE Wyoming",
    "lat": 42.0628,
    "lng": -104.184,
    "railAccessible": false,
    "nearTransload": false,
    "contactName": "Grain Desk",
    "contactPhone": "(307) 660-4856",
    "website": "https://www.chsinc.com",
    "lastUpdated": "2026-02-18T19:06:52.184Z",
    "confidenceScore": 50,
    "verified": false,
    "cropType": "Yellow Corn",
    "organic": false,
    "railConfidence": 28
  },
  {
    "id": "dir-0161",
    "name": "Goshen County Grain",
    "type": "elevator",
    "cashPrice": 4.14,
    "basis": -0.34,
    "freightCost": 0,
    "netPrice": 0,
    "city": "Torrington",
    "state": "WY",
    "region": "SE Wyoming",
    "lat": 42.0628,
    "lng": -104.184,
    "railAccessible": false,
    "nearTransload": false,
    "contactName": "Grain Desk",
    "contactPhone": "(307) 616-7441",
    "website": "",
    "lastUpdated": "2026-02-18T19:06:52.184Z",
    "confidenceScore": 50,
    "verified": false,
    "cropType": "Yellow Corn",
    "organic": false,
    "railConfidence": 28
  },
  {
    "id": "dir-0162",
    "name": "Southwest Cheese Clovis",
    "type": "processor",
    "cashPrice": 4.4,
    "basis": -0.08,
    "freightCost": 0,
    "netPrice": 0,
    "city": "Clovis",
    "state": "NM",
    "region": "Eastern NM",
    "lat": 34.4048,
    "lng": -103.205,
    "railAccessible": true,
    "nearTransload": true,
    "contactName": "Grain Desk",
    "contactPhone": "(505) 918-5793",
    "website": "",
    "lastUpdated": "2026-02-18T19:06:52.184Z",
    "confidenceScore": 99,
    "verified": true,
    "cropType": "Yellow Corn",
    "organic": false,
    "railConfidence": 99
  },
  {
    "id": "dir-0163",
    "name": "Leprino Foods Roswell",
    "type": "processor",
    "cashPrice": 4.38,
    "basis": -0.1,
    "freightCost": 0,
    "netPrice": 0,
    "city": "Roswell",
    "state": "NM",
    "region": "SE New Mexico",
    "lat": 33.3943,
    "lng": -104.523,
    "railAccessible": false,
    "nearTransload": false,
    "contactName": "Grain Desk",
    "contactPhone": "(505) 584-8856",
    "website": "",
    "lastUpdated": "2026-02-18T19:06:52.184Z",
    "confidenceScore": 50,
    "verified": false,
    "cropType": "Yellow Corn",
    "organic": false,
    "railConfidence": 26
  },
  {
    "id": "dir-0164",
    "name": "Perdue Farms Gainesville",
    "type": "feedlot",
    "cashPrice": 4.62,
    "basis": 0.14,
    "freightCost": 0,
    "netPrice": 0,
    "city": "Gainesville",
    "state": "GA",
    "region": "North Georgia",
    "lat": 34.2979,
    "lng": -83.8241,
    "railAccessible": true,
    "nearTransload": true,
    "contactName": "Grain Desk",
    "contactPhone": "(706) 342-5170",
    "website": "",
    "lastUpdated": "2026-02-18T19:06:52.184Z",
    "confidenceScore": 99,
    "verified": true,
    "cropType": "Yellow Corn",
    "organic": false,
    "railConfidence": 100
  },
  {
    "id": "dir-0165",
    "name": "Wayne Farms Oakwood",
    "type": "feedlot",
    "cashPrice": 4.64,
    "basis": 0.16,
    "freightCost": 0,
    "netPrice": 0,
    "city": "Oakwood",
    "state": "GA",
    "region": "North Georgia",
    "lat": 34.2276,
    "lng": -83.8824,
    "railAccessible": true,
    "nearTransload": true,
    "contactName": "Grain Desk",
    "contactPhone": "(229) 588-6489",
    "website": "",
    "lastUpdated": "2026-02-18T19:06:52.184Z",
    "confidenceScore": 99,
    "verified": true,
    "cropType": "Yellow Corn",
    "organic": false,
    "railConfidence": 99
  },
  {
    "id": "dir-0166",
    "name": "Pilgrim's Pride Atlanta",
    "type": "feedlot",
    "cashPrice": 4.69,
    "basis": 0.21,
    "freightCost": 0,
    "netPrice": 0,
    "city": "Atlanta",
    "state": "GA",
    "region": "Metro Atlanta",
    "lat": 33.749,
    "lng": -84.388,
    "railAccessible": true,
    "nearTransload": true,
    "contactName": "Grain Desk",
    "contactPhone": "(229) 122-8658",
    "website": "",
    "lastUpdated": "2026-02-18T19:06:52.184Z",
    "confidenceScore": 99,
    "verified": true,
    "cropType": "Yellow Corn",
    "organic": false,
    "railConfidence": 100
  },
  {
    "id": "dir-0167",
    "name": "Koch Foods Gainesville",
    "type": "feedlot",
    "cashPrice": 4.63,
    "basis": 0.15,
    "freightCost": 0,
    "netPrice": 0,
    "city": "Gainesville",
    "state": "GA",
    "region": "North Georgia",
    "lat": 34.2979,
    "lng": -83.8241,
    "railAccessible": true,
    "nearTransload": true,
    "contactName": "Grain Desk",
    "contactPhone": "(478) 802-5139",
    "website": "",
    "lastUpdated": "2026-02-18T19:06:52.184Z",
    "confidenceScore": 99,
    "verified": true,
    "cropType": "Yellow Corn",
    "organic": false,
    "railConfidence": 100
  },
  {
    "id": "dir-0168",
    "name": "Tyson Foods Albertville",
    "type": "feedlot",
    "cashPrice": 4.58,
    "basis": 0.1,
    "freightCost": 0,
    "netPrice": 0,
    "city": "Albertville",
    "state": "AL",
    "region": "North Alabama",
    "lat": 34.2726,
    "lng": -86.2086,
    "railAccessible": false,
    "nearTransload": false,
    "contactName": "Grain Desk",
    "contactPhone": "(334) 135-3907",
    "website": "",
    "lastUpdated": "2026-02-18T19:06:52.184Z",
    "confidenceScore": 50,
    "verified": false,
    "cropType": "Yellow Corn",
    "organic": false,
    "railConfidence": 41
  },
  {
    "id": "dir-0169",
    "name": "Wayne Farms Decatur AL",
    "type": "feedlot",
    "cashPrice": 4.55,
    "basis": 0.07,
    "freightCost": 0,
    "netPrice": 0,
    "city": "Decatur",
    "state": "AL",
    "region": "North Alabama",
    "lat": 34.6059,
    "lng": -86.9833,
    "railAccessible": false,
    "nearTransload": false,
    "contactName": "Grain Desk",
    "contactPhone": "(256) 727-7852",
    "website": "",
    "lastUpdated": "2026-02-18T19:06:52.184Z",
    "confidenceScore": 50,
    "verified": false,
    "cropType": "Yellow Corn",
    "organic": false,
    "railConfidence": 34
  },
  {
    "id": "dir-0170",
    "name": "Bunge Destrehan (MS Shuttle)",
    "type": "shuttle",
    "cashPrice": 4.53,
    "basis": 0.05,
    "freightCost": 0,
    "netPrice": 0,
    "city": "Vicksburg",
    "state": "MS",
    "region": "MS River",
    "lat": 32.3526,
    "lng": -90.8779,
    "railAccessible": false,
    "nearTransload": false,
    "contactName": "Grain Desk",
    "contactPhone": "(662) 919-4018",
    "website": "https://www.bunge.com",
    "lastUpdated": "2026-02-18T19:06:52.184Z",
    "confidenceScore": 50,
    "verified": false,
    "cropType": "Yellow Corn",
    "organic": false,
    "railConfidence": 0
  },
  {
    "id": "dir-0171",
    "name": "ADM Destrehan",
    "type": "export",
    "cashPrice": 4.76,
    "basis": 0.28,
    "freightCost": 0,
    "netPrice": 0,
    "city": "Destrehan",
    "state": "LA",
    "region": "Gulf Export",
    "lat": 29.943,
    "lng": -90.3595,
    "railAccessible": false,
    "nearTransload": false,
    "contactName": "Grain Desk",
    "contactPhone": "(225) 826-3170",
    "website": "https://www.adm.com",
    "lastUpdated": "2026-02-18T19:06:52.184Z",
    "confidenceScore": 50,
    "verified": false,
    "cropType": "Yellow Corn",
    "organic": false,
    "railConfidence": 0
  },
  {
    "id": "dir-0172",
    "name": "Cargill Reserve",
    "type": "export",
    "cashPrice": 4.78,
    "basis": 0.3,
    "freightCost": 0,
    "netPrice": 0,
    "city": "Reserve",
    "state": "LA",
    "region": "Gulf Export",
    "lat": 30.0524,
    "lng": -90.5535,
    "railAccessible": false,
    "nearTransload": false,
    "contactName": "Grain Desk",
    "contactPhone": "(225) 420-9014",
    "website": "https://www.cargill.com/agriculture",
    "lastUpdated": "2026-02-18T19:06:52.184Z",
    "confidenceScore": 50,
    "verified": false,
    "cropType": "Yellow Corn",
    "organic": false,
    "railConfidence": 0
  },
  {
    "id": "dir-0173",
    "name": "Bunge Destrehan",
    "type": "export",
    "cashPrice": 4.77,
    "basis": 0.29,
    "freightCost": 0,
    "netPrice": 0,
    "city": "Destrehan",
    "state": "LA",
    "region": "Gulf Export",
    "lat": 29.943,
    "lng": -90.3595,
    "railAccessible": false,
    "nearTransload": false,
    "contactName": "Grain Desk",
    "contactPhone": "(225) 965-3948",
    "website": "https://www.bunge.com",
    "lastUpdated": "2026-02-18T19:06:52.184Z",
    "confidenceScore": 50,
    "verified": false,
    "cropType": "Yellow Corn",
    "organic": false,
    "railConfidence": 0
  },
  {
    "id": "dir-0174",
    "name": "Louis Dreyfus Baton Rouge",
    "type": "export",
    "cashPrice": 4.78,
    "basis": 0.3,
    "freightCost": 0,
    "netPrice": 0,
    "city": "Baton Rouge",
    "state": "LA",
    "region": "Gulf Export",
    "lat": 30.4515,
    "lng": -91.1871,
    "railAccessible": false,
    "nearTransload": false,
    "contactName": "Grain Desk",
    "contactPhone": "(504) 912-1153",
    "website": "",
    "lastUpdated": "2026-02-18T19:06:52.184Z",
    "confidenceScore": 50,
    "verified": false,
    "cropType": "Yellow Corn",
    "organic": false,
    "railConfidence": 0
  },
  {
    "id": "dir-0175",
    "name": "BNSF Logistics Fargo Transload",
    "type": "transload",
    "cashPrice": 4.05,
    "basis": -0.43,
    "freightCost": 0,
    "netPrice": 0,
    "city": "Fargo",
    "state": "ND",
    "region": "Eastern ND",
    "lat": 46.8772,
    "lng": -96.7898,
    "railAccessible": true,
    "nearTransload": true,
    "contactName": "Operations",
    "contactPhone": "(701) 699-7768",
    "website": "",
    "lastUpdated": "2026-02-18T19:06:52.184Z",
    "confidenceScore": 99,
    "verified": true,
    "cropType": "Yellow Corn",
    "organic": false,
    "railConfidence": 100
  },
  {
    "id": "dir-0176",
    "name": "BNSF Minot Transload",
    "type": "transload",
    "cashPrice": 3.95,
    "basis": -0.53,
    "freightCost": 0,
    "netPrice": 0,
    "city": "Minot",
    "state": "ND",
    "region": "Northern ND",
    "lat": 48.2325,
    "lng": -101.296,
    "railAccessible": false,
    "nearTransload": true,
    "contactName": "Operations",
    "contactPhone": "(701) 444-8161",
    "website": "",
    "lastUpdated": "2026-02-18T19:06:52.184Z",
    "confidenceScore": 50,
    "verified": false,
    "cropType": "Yellow Corn",
    "organic": false,
    "railConfidence": 15
  },
  {
    "id": "dir-0177",
    "name": "Superior Shuttle Elevator",
    "type": "transload",
    "cashPrice": 4.16,
    "basis": -0.32,
    "freightCost": 0,
    "netPrice": 0,
    "city": "Superior",
    "state": "NE",
    "region": "South Central NE",
    "lat": 40.0211,
    "lng": -98.07,
    "railAccessible": false,
    "nearTransload": true,
    "contactName": "Operations",
    "contactPhone": "(402) 429-6595",
    "website": "",
    "lastUpdated": "2026-02-18T19:06:52.184Z",
    "confidenceScore": 50,
    "verified": false,
    "cropType": "Yellow Corn",
    "organic": false,
    "railConfidence": 38
  },
  {
    "id": "dir-0178",
    "name": "BNSF Kansas City Transload",
    "type": "transload",
    "cashPrice": 4.35,
    "basis": -0.13,
    "freightCost": 0,
    "netPrice": 0,
    "city": "Kansas City",
    "state": "KS",
    "region": "Eastern KS",
    "lat": 39.0997,
    "lng": -94.5786,
    "railAccessible": true,
    "nearTransload": true,
    "contactName": "Operations",
    "contactPhone": "(913) 809-1270",
    "website": "",
    "lastUpdated": "2026-02-18T19:06:52.184Z",
    "confidenceScore": 99,
    "verified": true,
    "cropType": "Yellow Corn",
    "organic": false,
    "railConfidence": 100
  },
  {
    "id": "dir-0179",
    "name": "Pasco Intermodal Transload",
    "type": "transload",
    "cashPrice": 4.61,
    "basis": 0.13,
    "freightCost": 0,
    "netPrice": 0,
    "city": "Pasco",
    "state": "WA",
    "region": "Columbia Basin",
    "lat": 46.2396,
    "lng": -119.1,
    "railAccessible": true,
    "nearTransload": true,
    "contactName": "Operations",
    "contactPhone": "(509) 567-4709",
    "website": "",
    "lastUpdated": "2026-02-18T19:06:52.184Z",
    "confidenceScore": 99,
    "verified": true,
    "cropType": "Yellow Corn",
    "organic": false,
    "railConfidence": 100
  },
  {
    "id": "dir-0180",
    "name": "BNSF Amarillo Transload",
    "type": "transload",
    "cashPrice": 4.55,
    "basis": 0.07,
    "freightCost": 0,
    "netPrice": 0,
    "city": "Amarillo",
    "state": "TX",
    "region": "Texas Panhandle",
    "lat": 35.222,
    "lng": -101.831,
    "railAccessible": true,
    "nearTransload": true,
    "contactName": "Operations",
    "contactPhone": "(512) 372-3985",
    "website": "",
    "lastUpdated": "2026-02-18T19:06:52.184Z",
    "confidenceScore": 99,
    "verified": true,
    "cropType": "Yellow Corn",
    "organic": false,
    "railConfidence": 100
  },
  {
    "id": "dir-0181",
    "name": "BNSF Memphis Transload",
    "type": "transload",
    "cashPrice": 4.56,
    "basis": 0.08,
    "freightCost": 0,
    "netPrice": 0,
    "city": "Memphis",
    "state": "TN",
    "region": "Mid-South",
    "lat": 35.1495,
    "lng": -90.049,
    "railAccessible": true,
    "nearTransload": true,
    "contactName": "Operations",
    "contactPhone": "(615) 528-1350",
    "website": "",
    "lastUpdated": "2026-02-18T19:06:52.184Z",
    "confidenceScore": 99,
    "verified": true,
    "cropType": "Yellow Corn",
    "organic": false,
    "railConfidence": 100
  },
  {
    "id": "dir-0182",
    "name": "BNSF Stockton Transload",
    "type": "transload",
    "cashPrice": 5.39,
    "basis": 0.91,
    "freightCost": 0,
    "netPrice": 0,
    "city": "Stockton",
    "state": "CA",
    "region": "Central Valley",
    "lat": 37.9577,
    "lng": -121.29,
    "railAccessible": true,
    "nearTransload": true,
    "contactName": "Operations",
    "contactPhone": "(559) 119-6285",
    "website": "",
    "lastUpdated": "2026-02-18T19:06:52.184Z",
    "confidenceScore": 99,
    "verified": true,
    "cropType": "Yellow Corn",
    "organic": false,
    "railConfidence": 100
  },
  {
    "id": "dir-0183",
    "name": "Chicago Transload Terminal",
    "type": "transload",
    "cashPrice": 4.44,
    "basis": -0.04,
    "freightCost": 0,
    "netPrice": 0,
    "city": "Chicago",
    "state": "IL",
    "region": "Chicago Metro",
    "lat": 41.8781,
    "lng": -87.6298,
    "railAccessible": true,
    "nearTransload": true,
    "contactName": "Operations",
    "contactPhone": "(217) 526-7474",
    "website": "",
    "lastUpdated": "2026-02-18T19:06:52.184Z",
    "confidenceScore": 99,
    "verified": true,
    "cropType": "Yellow Corn",
    "organic": false,
    "railConfidence": 100
  },
  {
    "id": "dir-0184",
    "name": "Denver Transload Hub",
    "type": "transload",
    "cashPrice": 4.37,
    "basis": -0.11,
    "freightCost": 0,
    "netPrice": 0,
    "city": "Denver",
    "state": "CO",
    "region": "Front Range",
    "lat": 39.7392,
    "lng": -104.99,
    "railAccessible": true,
    "nearTransload": true,
    "contactName": "Operations",
    "contactPhone": "(970) 356-1112",
    "website": "",
    "lastUpdated": "2026-02-18T19:06:52.184Z",
    "confidenceScore": 99,
    "verified": true,
    "cropType": "Yellow Corn",
    "organic": false,
    "railConfidence": 100
  }
]